,Code,Name,ABC,Trans Type,ET Begin Time,ET Complete Time,Peak Time,Trop Peak Time,Genesis Time,Peak SLP,Peak Lon,Peak Lat,Trop Peak SLP,Trop Peak Lon,Trop Peak Lat,ET Begin SLP,ET Begin Lon,ET Begin Lat,ET Complete SLP,ET Complete Lon,ET Complete Lat,Genesis SLP,Genesis Lon,Genesis Lat
0,TC210001,Alex,A,-1,,,2100-02-04 12:00:00,2100-02-04 12:00:00,2100-02-03 00:00:00,991.82,-34.58,27.5,991.82,-34.58,27.5,,,,,,,1005.8,-36.05,31.78
1,TC210003,Colin,A,2,2100-03-03 18:00:00,2100-03-04 00:00:00,2100-03-01 12:00:00,2100-03-01 12:00:00,2100-03-01 06:00:00,943.01,-45.04,45.78,943.01,-45.04,45.78,970.11,-32.3,41.93,971.02,-29.14,42.38,944.96,-45.1,44.65
2,TC210004,Dawn,A,0,2100-08-10 06:00:00,,2100-08-09 12:00:00,2100-08-09 12:00:00,2100-08-07 00:00:00,997.61,-49.73,45.27,997.61,-49.73,45.27,1004.28,-43.63,45.36,,,,1010.91,-67.95,39.79
3,TC210005,Ernest,A,2,2100-09-01 06:00:00,2100-09-01 12:00:00,2100-08-28 12:00:00,2100-08-28 12:00:00,2100-08-21 06:00:00,968.16,-79.09,29.45,968.16,-79.09,29.45,1003.3,-76.85,39.42,1001.84,-74.73,41.55,1009.56,-29.92,13.56
4,TC210006,Grace,A,-1,,,2100-08-25 18:00:00,2100-08-25 18:00:00,2100-08-22 18:00:00,983.15,-86.28,25.74,983.15,-86.28,25.74,,,,,,,1003.73,-65.16,18.36
5,TC210007,Harrison,A,0,2100-11-13 12:00:00,,2100-11-16 00:00:00,2100-11-10 18:00:00,2100-11-10 18:00:00,942.74,-44.0,51.25,963.95,-71.94,35.33,990.63,-69.2,36.56,,,,963.95,-71.94,35.33
6,TC210103,Lydia,A,1,2101-07-26 12:00:00,2101-07-28 00:00:00,2101-07-26 18:00:00,2101-07-26 06:00:00,2101-07-21 00:00:00,971.18,-50.38,41.08,972.98,-56.11,37.49,971.89,-53.14,39.28,992.45,-37.66,46.61,1006.8,-78.09,26.66
7,TC210105,Nicole,A,1,2101-09-12 18:00:00,2101-09-14 18:00:00,2101-09-08 18:00:00,2101-09-08 18:00:00,2101-08-31 18:00:00,902.97,-57.85,23.01,902.97,-57.85,23.01,934.13,-60.07,35.72,962.56,-47.38,49.02,1007.41,-16.98,11.22
8,TC210106,Phil,A,1,2101-09-22 18:00:00,2101-09-23 18:00:00,2101-09-21 00:00:00,2101-09-21 00:00:00,2101-09-14 18:00:00,987.95,-57.9,27.28,987.95,-57.9,27.28,997.21,-55.88,36.75,1001.49,-44.6,45.12,1008.55,-33.91,12.24
9,TC210107,Song,A,1,2101-10-21 00:00:00,2101-10-22 12:00:00,2101-10-15 18:00:00,2101-10-15 18:00:00,2101-10-09 12:00:00,972.53,-44.38,34.56,972.53,-44.38,34.56,1000.6,-31.27,43.82,1009.88,-14.6,43.7,1012.97,-41.84,19.77
10,TC210108,Tony,A,1,2101-10-31 12:00:00,2101-11-03 00:00:00,2101-11-03 06:00:00,2101-10-31 00:00:00,2101-10-29 12:00:00,958.33,-57.25,45.25,993.43,-83.39,18.79,991.45,-82.16,20.04,966.28,-60.25,42.5,1004.12,-80.42,12.14
11,TC210109,Victoria,A,-1,,,2101-11-01 06:00:00,2101-11-01 06:00:00,2101-11-01 00:00:00,997.76,-37.71,31.28,997.76,-37.71,31.28,,,,,,,1002.59,-37.19,31.64
12,TC210201,Audrey,A,-1,,,2102-01-11 06:00:00,2102-01-11 06:00:00,2102-01-09 06:00:00,948.15,-43.23,37.48,948.15,-43.23,37.48,,,,,,,963.74,-60.31,38.45
13,TC210203,Christine,A,-1,,,2102-03-15 06:00:00,2102-03-15 06:00:00,2102-03-11 18:00:00,953.94,-34.58,45.0,953.94,-34.58,45.0,,,,,,,1005.27,-62.72,33.5
14,TC210303,Jacob,A,1,2103-09-28 12:00:00,2103-10-01 12:00:00,2103-09-30 06:00:00,2103-09-23 18:00:00,2103-09-13 18:00:00,973.1,-65.86,41.49,986.2,-65.04,24.31,996.27,-72.1,34.29,990.47,-48.82,48.66,1007.88,-30.37,10.25
15,TC210402,Luke,A,-1,,,2104-04-30 06:00:00,2104-04-30 06:00:00,2104-04-29 06:00:00,973.3,-42.31,40.05,973.3,-42.31,40.05,,,,,,,977.49,-48.2,42.22
16,TC210403,Maho,A,-1,,,2104-05-05 12:00:00,2104-05-05 12:00:00,2104-05-03 00:00:00,998.37,-62.95,29.01,998.37,-62.95,29.01,,,,,,,1006.0,-72.48,23.9
17,TC210406,Samson,A,1,2104-11-04 06:00:00,2104-11-04 12:00:00,2104-11-03 00:00:00,2104-11-03 00:00:00,2104-11-01 00:00:00,983.4,-80.23,30.79,983.4,-80.23,30.79,1002.87,-78.57,33.49,1003.32,-77.3,34.64,1001.5,-64.44,31.49
18,TC210407,Tiffany,A,0,2104-11-17 06:00:00,,2104-11-09 06:00:00,2104-11-09 06:00:00,2104-11-08 18:00:00,984.97,-31.13,32.18,984.97,-31.13,32.18,1016.83,-25.25,44.5,,,,987.9,-31.03,30.76
19,TC210502,Andy,A,3,2105-02-22 12:00:00,2105-02-22 12:00:00,2105-02-19 06:00:00,2105-02-19 06:00:00,2105-02-18 06:00:00,963.17,-42.91,37.92,963.17,-42.91,37.92,1005.2,-15.75,37.5,1005.2,-15.75,37.5,982.06,-55.81,36.86
20,TC210503,Bonnie,A,0,2105-02-27 18:00:00,,2105-02-27 00:00:00,2105-02-27 00:00:00,2105-02-24 12:00:00,956.81,-35.38,35.67,956.81,-35.38,35.67,961.68,-29.59,39.76,,,,981.25,-50.94,30.39
21,TC210506,Erik,A,0,2105-09-04 12:00:00,,2105-08-31 18:00:00,2105-08-31 18:00:00,2105-08-23 18:00:00,902.62,-78.25,28.44,902.62,-78.25,28.44,935.76,-70.86,35.32,,,,1008.53,-27.27,7.47
22,TC210507,Gloria,A,0,2105-10-04 18:00:00,,2105-09-27 18:00:00,2105-09-27 18:00:00,2105-09-19 12:00:00,925.26,-48.56,34.91,925.26,-48.56,34.91,977.52,-38.56,44.26,,,,1008.38,-32.11,13.79
23,TC210508,Hubert,A,1,2105-10-09 00:00:00,2105-10-11 00:00:00,2105-10-14 00:00:00,2105-10-04 18:00:00,2105-10-02 00:00:00,983.63,-36.25,56.25,1003.71,-79.32,27.63,1005.83,-77.77,32.36,999.94,-65.18,35.56,1010.38,-76.74,23.67
24,TC210602,Lily,A,-1,,,2106-08-17 12:00:00,2106-08-17 12:00:00,2106-08-13 18:00:00,987.67,-95.01,19.07,987.67,-95.01,19.07,,,,,,,1009.82,-69.12,18.33
25,TC210604,Noelle,A,-1,,,2106-12-26 12:00:00,2106-12-26 12:00:00,2106-12-26 00:00:00,950.31,-53.03,43.64,950.31,-53.03,43.64,,,,,,,954.46,-60.98,40.27
26,TC210701,Quinn,A,1,2107-09-25 00:00:00,2107-09-25 12:00:00,2107-09-26 18:00:00,2107-09-23 18:00:00,2107-09-21 06:00:00,999.22,-66.0,40.75,1000.41,-77.22,32.06,1008.73,-75.85,34.95,1006.06,-74.73,36.4,1011.14,-66.91,27.01
27,TC210703,Thomas,A,0,2107-10-11 06:00:00,,2107-10-12 06:00:00,2107-10-10 18:00:00,2107-10-06 00:00:00,980.51,-32.0,54.5,994.7,-42.91,45.19,991.48,-37.38,48.09,,,,1016.78,-59.64,31.83
28,TC210802,Ana,A,1,2108-04-12 00:00:00,2108-04-15 06:00:00,2108-04-14 06:00:00,2108-04-11 00:00:00,2108-04-09 12:00:00,976.7,-52.92,38.54,990.66,-68.83,28.3,994.09,-65.33,26.15,985.21,-40.02,47.29,993.48,-72.7,25.16
29,TC210803,Bryan,A,3,2108-10-11 06:00:00,2108-10-11 06:00:00,2108-10-05 18:00:00,2108-10-05 18:00:00,2108-09-30 12:00:00,946.47,-31.96,35.06,946.47,-31.96,35.06,1000.82,-36.27,46.14,1000.82,-36.27,46.14,1009.31,-54.49,27.62
30,TC210805,Dominic,A,1,2108-10-21 12:00:00,2108-10-23 00:00:00,2108-10-23 00:00:00,2108-10-15 12:00:00,2108-10-15 18:00:00,977.04,-29.75,56.0,994.82,-49.74,40.13,995.99,-31.45,42.91,977.04,-29.75,56.0,997.71,-48.08,37.89
31,TC210806,Esther,A,1,2108-11-11 06:00:00,2108-11-12 00:00:00,2108-11-10 18:00:00,2108-11-10 18:00:00,2108-11-02 18:00:00,957.55,-34.21,38.14,957.55,-34.21,38.14,966.57,-31.84,44.42,978.85,-22.88,49.5,1007.77,-49.67,30.88
32,TC210808,Helena,A,0,2108-12-15 00:00:00,,2108-12-12 12:00:00,2108-12-12 12:00:00,2108-12-08 18:00:00,963.77,-58.92,34.77,963.77,-58.92,34.77,991.67,-49.47,35.97,,,,1005.89,-67.99,26.76
33,TC210901,John,A,-1,,,2109-02-19 18:00:00,2109-02-19 18:00:00,2109-02-15 00:00:00,959.78,-26.92,49.0,959.78,-26.92,49.0,,,,,,,1007.38,-44.18,28.68
34,TC210905,Nathan,A,0,2109-10-03 12:00:00,,2109-10-02 12:00:00,2109-10-02 12:00:00,2109-09-25 06:00:00,913.84,-65.84,28.28,913.84,-65.84,28.28,925.56,-61.0,34.16,,,,1007.13,-29.45,12.77
35,TC210908,Tatiana,A,2,2109-11-11 06:00:00,2109-11-11 12:00:00,2109-11-13 12:00:00,2109-11-07 06:00:00,2109-11-06 12:00:00,983.91,-15.5,41.75,989.34,-24.1,41.4,991.37,-35.0,37.03,991.73,-33.07,37.15,1004.59,-22.32,39.52
36,TC211001,Carson,A,1,2110-08-30 12:00:00,2110-08-31 12:00:00,2110-08-27 00:00:00,2110-08-27 00:00:00,2110-08-18 06:00:00,920.65,-67.41,30.05,920.65,-67.41,30.05,938.26,-56.41,43.25,977.4,-38.13,47.96,1007.4,-31.22,15.15
37,TC211003,Erling,A,1,2110-09-27 00:00:00,2110-09-28 12:00:00,2110-09-26 18:00:00,2110-09-26 18:00:00,2110-09-23 12:00:00,987.95,-66.53,37.79,987.95,-66.53,37.79,989.1,-64.44,38.22,1012.07,-51.5,42.0,1011.55,-77.17,31.14
38,TC211004,Greta,A,0,2110-11-13 18:00:00,,2110-11-10 00:00:00,2110-11-10 00:00:00,2110-11-07 18:00:00,988.23,-75.13,33.26,988.23,-75.13,33.26,1008.17,-59.5,35.0,,,,1005.34,-78.07,29.78
39,TC211005,Hendrik,A,3,2110-11-29 06:00:00,2110-11-29 06:00:00,2110-11-30 06:00:00,2110-11-26 00:00:00,2110-11-25 06:00:00,989.8,-27.0,56.25,998.03,-45.21,36.07,998.31,-35.18,40.29,998.31,-35.18,40.29,1005.23,-49.84,35.77
40,TC211201,Kevin,A,-1,,,2112-01-10 18:00:00,2112-01-10 18:00:00,2112-01-08 18:00:00,986.01,-32.65,39.18,986.01,-32.65,39.18,,,,,,,995.79,-43.08,32.06
41,TC211202,Laura,A,0,2112-01-14 12:00:00,,2112-01-12 06:00:00,2112-01-12 06:00:00,2112-01-11 18:00:00,987.41,-27.8,34.06,987.41,-27.8,34.06,1002.92,-20.75,34.5,,,,989.32,-28.31,33.56
42,TC211204,Naomi,A,0,2112-04-13 06:00:00,,2112-04-10 18:00:00,2112-04-10 18:00:00,2112-04-09 18:00:00,976.36,-34.62,35.13,976.36,-34.62,35.13,990.4,-17.78,34.95,,,,995.6,-43.61,29.86
43,TC211205,Rocco,A,0,2112-09-06 00:00:00,,2112-09-05 00:00:00,2112-09-05 00:00:00,2112-08-28 18:00:00,916.5,-61.04,32.4,916.5,-61.04,32.4,942.37,-56.1,36.65,,,,1009.5,-28.42,13.97
44,TC211206,Shirley,A,0,2112-10-15 12:00:00,,2112-10-16 12:00:00,2112-10-13 18:00:00,2112-09-30 18:00:00,970.75,-60.4,42.26,981.02,-74.1,22.15,983.49,-61.45,36.17,,,,1008.83,-92.6,21.62
45,TC211207,Timothy,A,3,2112-11-06 12:00:00,2112-11-06 12:00:00,2112-11-03 18:00:00,2112-11-03 18:00:00,2112-10-30 12:00:00,947.91,-38.89,41.46,947.91,-38.89,41.46,987.15,-24.87,48.77,987.15,-24.87,48.77,1008.96,-48.58,30.53
46,TC211208,Wendy,A,1,2112-11-03 18:00:00,2112-11-07 12:00:00,2112-11-07 00:00:00,2112-11-03 06:00:00,2112-11-01 06:00:00,953.16,-58.56,43.49,997.6,-71.21,32.31,1002.08,-70.14,33.9,962.48,-61.3,46.97,1010.88,-78.24,27.63
47,TC211210,Benjamin,A,-1,,,2112-12-27 06:00:00,2112-12-27 06:00:00,2112-12-24 18:00:00,982.02,-62.23,36.43,982.02,-62.23,36.43,,,,,,,1001.23,-75.7,34.35
48,TC211301,Carmen,A,0,2113-01-15 06:00:00,,2113-01-14 12:00:00,2113-01-14 12:00:00,2113-01-11 06:00:00,937.29,-42.81,41.44,937.29,-42.81,41.44,940.9,-36.61,39.57,,,,964.69,-71.7,35.74
49,TC211305,Hazel,A,1,2113-06-19 00:00:00,2113-06-19 18:00:00,2113-06-18 00:00:00,2113-06-18 00:00:00,2113-06-10 12:00:00,959.56,-71.9,33.49,959.56,-71.9,33.49,968.89,-67.21,38.58,980.91,-60.91,44.87,1003.72,-78.75,13.35
50,TC211307,Kelly,A,3,2113-09-24 12:00:00,2113-09-24 12:00:00,2113-09-22 12:00:00,2113-09-22 12:00:00,2113-09-11 18:00:00,963.15,-92.17,28.24,963.15,-92.17,28.24,1002.15,-91.41,34.53,1002.15,-91.41,34.53,1009.79,-95.66,18.36
51,TC211308,Luca,A,1,2113-09-21 00:00:00,2113-09-25 06:00:00,2113-09-18 00:00:00,2113-09-18 00:00:00,2113-09-12 18:00:00,911.77,-43.93,21.91,911.77,-43.93,21.91,956.55,-44.48,31.57,977.74,-48.83,53.69,1006.52,-29.2,14.42
52,TC211309,Mary,A,0,2113-11-07 12:00:00,,2113-11-10 00:00:00,2113-11-04 06:00:00,2113-10-31 00:00:00,943.59,-66.64,44.07,951.74,-93.41,21.77,950.39,-89.47,25.49,,,,1002.14,-89.7,26.27
53,TC211310,Nabil,A,1,2113-11-07 12:00:00,2113-11-07 18:00:00,2113-11-09 18:00:00,2113-11-07 06:00:00,2113-11-04 00:00:00,983.16,6.75,55.25,1006.06,-26.35,39.11,1007.17,-24.45,39.38,1004.1,-22.03,40.33,1011.02,-37.37,28.33
54,TC211401,Rosalina,A,-1,,,2114-02-05 06:00:00,2114-02-05 06:00:00,2114-02-03 18:00:00,988.21,-53.5,27.91,988.21,-53.5,27.91,,,,,,,1000.66,-51.94,27.31
55,TC211402,Skyler,A,-1,,,2114-02-17 18:00:00,2114-02-17 18:00:00,2114-02-14 06:00:00,997.36,-43.58,31.67,997.36,-43.58,31.67,,,,,,,1002.08,-49.38,34.6
56,TC211403,Tracy,A,2,2114-02-25 00:00:00,2114-02-25 06:00:00,2114-02-22 18:00:00,2114-02-22 18:00:00,2114-02-21 00:00:00,999.96,-33.9,36.77,999.96,-33.9,36.77,1011.72,-37.25,36.67,1011.03,-35.89,36.81,1007.97,-38.22,35.46
57,TC211405,Alberto,A,1,2114-08-26 00:00:00,2114-08-28 00:00:00,2114-08-25 00:00:00,2114-08-25 00:00:00,2114-08-13 12:00:00,915.17,-63.64,32.17,915.17,-63.64,32.17,928.16,-60.6,37.45,973.34,-46.87,49.91,1005.95,-20.82,14.53
58,TC211406,Blaise,A,0,2114-09-09 06:00:00,,2114-09-05 12:00:00,2114-09-05 12:00:00,2114-08-26 06:00:00,941.97,-77.79,28.77,941.97,-77.79,28.77,985.18,-72.54,35.48,,,,1008.36,-29.55,14.83
59,TC211407,Carlos,A,0,2114-09-09 18:00:00,,2114-09-08 00:00:00,2114-09-08 00:00:00,2114-09-02 06:00:00,906.75,-63.69,23.32,906.75,-63.69,23.32,956.56,-65.8,33.67,,,,1006.93,-29.24,9.73
60,TC211408,Daisy,A,0,2114-09-12 12:00:00,,2114-09-13 00:00:00,2114-09-11 18:00:00,2114-09-10 12:00:00,976.31,-44.03,46.44,980.82,-51.91,39.73,982.1,-47.24,42.86,,,,997.69,-65.83,34.31
61,TC211409,Frederick,A,0,2114-09-26 12:00:00,,2114-09-19 18:00:00,2114-09-19 18:00:00,2114-09-15 12:00:00,932.01,-43.09,20.64,932.01,-43.09,20.64,1002.25,-36.25,32.25,,,,1008.04,-24.92,13.64
62,TC211410,Gwyneth,A,1,2114-10-19 00:00:00,2114-10-20 12:00:00,2114-10-19 06:00:00,2114-10-18 18:00:00,2114-10-16 18:00:00,984.05,-59.43,40.09,997.38,-59.77,37.36,991.13,-59.51,38.81,1001.32,-49.25,48.25,1009.46,-58.96,30.83
63,TC211501,Ian,A,1,2115-10-27 00:00:00,2115-10-27 06:00:00,2115-10-25 18:00:00,2115-10-25 18:00:00,2115-10-24 00:00:00,972.5,-59.47,34.9,972.5,-59.47,34.9,988.68,-47.67,43.95,989.62,-43.51,46.89,997.17,-61.9,29.32
64,TC211502,Jessica,A,3,2115-10-31 00:00:00,2115-10-31 00:00:00,2115-10-25 18:00:00,2115-10-25 18:00:00,2115-10-26 00:00:00,994.35,-18.21,39.89,994.35,-18.21,39.89,1002.02,-19.5,34.25,1002.02,-19.5,34.25,996.22,-19.22,38.61
65,TC211503,Kyle,A,1,2115-12-12 06:00:00,2115-12-12 12:00:00,2115-12-08 06:00:00,2115-12-08 06:00:00,2115-12-03 06:00:00,962.97,-56.8,35.5,962.97,-56.8,35.5,990.05,-46.73,44.22,990.27,-41.24,46.11,1002.28,-58.25,25.62
66,TC211504,Lorraine,A,0,2115-12-24 00:00:00,,2115-12-22 06:00:00,2115-12-22 06:00:00,2115-12-20 06:00:00,988.42,-57.14,35.58,988.42,-57.14,35.58,1007.17,-55.5,33.5,,,,1006.86,-63.59,33.89
67,TC211604,Sofiee,A,-1,,,2116-11-18 06:00:00,2116-11-18 06:00:00,2116-11-16 18:00:00,944.85,-33.39,43.79,944.85,-33.39,43.79,,,,,,,976.55,-45.38,38.16
68,TC211605,Travis,A,1,2116-11-27 06:00:00,2116-11-28 00:00:00,2116-11-25 06:00:00,2116-11-25 06:00:00,2116-11-21 18:00:00,978.89,-59.9,37.53,978.89,-59.9,37.53,990.06,-59.01,32.97,994.9,-53.74,31.62,992.69,-61.82,38.62
69,TC211606,Yan,A,1,2116-12-04 18:00:00,2116-12-06 00:00:00,2116-11-30 18:00:00,2116-11-30 18:00:00,2116-11-27 00:00:00,944.73,-31.01,37.59,944.73,-31.01,37.59,976.27,-20.89,39.81,977.52,-2.56,46.87,980.71,-40.29,40.16
70,TC211704,Flavia,A,0,2117-01-31 06:00:00,,2117-02-01 18:00:00,2117-01-30 18:00:00,2117-01-23 00:00:00,955.78,-24.6,35.86,962.93,-32.96,32.11,966.01,-31.13,32.18,,,,994.33,-44.13,35.42
71,TC211706,Ivanka,A,1,2117-02-21 06:00:00,2117-02-22 12:00:00,2117-02-19 06:00:00,2117-02-19 06:00:00,2117-02-18 18:00:00,953.71,-39.12,39.92,953.71,-39.12,39.92,972.15,-39.24,34.62,990.34,-29.0,32.25,954.85,-40.25,38.12
72,TC211707,Justin,A,1,2117-03-03 12:00:00,2117-03-05 12:00:00,2117-03-04 06:00:00,2117-03-02 00:00:00,2117-03-01 18:00:00,967.34,-35.89,36.81,971.42,-56.67,35.32,977.28,-44.83,32.24,973.71,-17.37,41.96,972.17,-57.38,36.33
73,TC211708,Kyan,A,-1,,,2117-09-05 06:00:00,2117-09-05 06:00:00,2117-08-27 12:00:00,995.62,-49.65,28.76,995.62,-49.65,28.76,,,,,,,1009.8,-30.3,16.08
74,TC211802,Melody,A,0,2118-05-18 06:00:00,,2118-05-18 18:00:00,2118-05-18 00:00:00,2118-05-13 00:00:00,967.3,-69.07,38.89,991.42,-80.53,34.25,985.92,-77.02,35.38,,,,1012.86,-89.06,28.39
75,TC211803,Oscar,A,1,2118-06-14 12:00:00,2118-06-15 12:00:00,2118-06-10 18:00:00,2118-06-10 18:00:00,2118-06-07 12:00:00,992.24,-67.27,33.5,992.24,-67.27,33.5,1009.79,-48.61,44.92,1013.34,-38.75,46.5,1010.38,-80.97,33.91
76,TC211804,Rachel,A,1,2118-08-16 18:00:00,2118-08-17 00:00:00,2118-08-14 12:00:00,2118-08-14 12:00:00,2118-08-09 12:00:00,872.72,-93.81,27.86,872.72,-93.81,27.86,996.93,-95.87,41.87,997.64,-94.51,42.59,1009.71,-56.74,18.45
77,TC211805,Savio,A,-1,,,2118-08-22 00:00:00,2118-08-22 00:00:00,2118-08-15 00:00:00,998.55,-59.14,34.43,998.55,-59.14,34.43,,,,,,,1006.03,-25.86,17.02
78,TC211806,Torie,A,-1,,,2118-09-03 06:00:00,2118-09-03 06:00:00,2118-09-03 06:00:00,992.23,-26.23,14.84,992.23,-26.23,14.84,,,,,,,992.23,-26.23,14.84
79,TC211807,Yoshi,A,-1,,,2118-09-06 12:00:00,2118-09-06 12:00:00,2118-09-03 12:00:00,989.12,-96.89,21.69,989.12,-96.89,21.69,,,,,,,1006.22,-95.83,23.2
80,TC211901,Brenda,A,-1,,,2119-03-19 06:00:00,2119-03-19 06:00:00,2119-03-17 06:00:00,994.68,-54.79,27.31,994.68,-54.79,27.31,,,,,,,1008.19,-62.49,24.0
81,TC211903,Doris,A,-1,,,2119-08-17 06:00:00,2119-08-17 06:00:00,2119-08-15 12:00:00,999.19,-36.21,16.26,999.19,-36.21,16.26,,,,,,,1010.21,-23.16,11.03
82,TC212003,Inaki,A,-1,,,2120-08-07 06:00:00,2120-08-07 06:00:00,2120-08-04 06:00:00,979.5,-96.12,26.05,979.5,-96.12,26.05,,,,,,,1011.24,-84.69,25.19
83,TC212005,Kelechi,A,1,2120-09-08 06:00:00,2120-09-09 00:00:00,2120-09-04 18:00:00,2120-09-04 18:00:00,2120-08-31 00:00:00,974.96,-91.02,28.07,974.96,-91.02,28.07,993.08,-77.4,41.04,993.69,-70.75,46.0,1005.09,-94.12,22.3
84,TC212006,Laurel,A,0,2120-09-18 18:00:00,,2120-09-16 12:00:00,2120-09-16 12:00:00,2120-09-08 18:00:00,950.59,-30.97,32.42,950.59,-30.97,32.42,966.02,-33.39,43.79,,,,1002.15,-16.26,14.14
85,TC212007,Micah,A,-1,,,2120-09-15 00:00:00,2120-09-15 00:00:00,2120-09-12 00:00:00,993.76,-86.55,29.51,993.76,-86.55,29.51,,,,,,,1007.97,-92.36,27.88
86,TC212101,Ruben,A,1,2121-02-07 00:00:00,2121-02-08 06:00:00,2121-02-07 12:00:00,2121-02-06 18:00:00,2121-02-05 06:00:00,978.31,-45.29,41.52,984.77,-39.56,41.3,984.04,-40.7,42.31,981.74,-39.0,41.11,987.25,-38.83,31.69
87,TC212106,Bruce,A,2,2121-10-22 00:00:00,2121-10-23 00:00:00,2121-10-22 18:00:00,2121-10-18 12:00:00,2121-10-17 18:00:00,994.94,-59.51,39.2,999.42,-75.81,29.51,1006.0,-55.4,39.46,1001.34,-58.76,37.81,1002.85,-80.58,27.61
88,TC212107,Candy,A,0,2121-11-06 06:00:00,,2121-11-02 18:00:00,2121-11-02 18:00:00,2121-10-30 00:00:00,990.41,-67.58,24.82,990.41,-67.58,24.82,1004.95,-63.25,39.25,,,,1001.14,-76.81,28.8
89,TC212108,Dylan,A,0,2121-12-01 00:00:00,,2121-11-30 18:00:00,2121-11-30 18:00:00,2121-11-27 06:00:00,945.23,-64.11,23.96,945.23,-64.11,23.96,963.64,-63.81,23.5,,,,995.18,-49.24,24.57
90,TC212201,Giovanni,A,1,2122-02-13 00:00:00,2122-02-13 12:00:00,2122-02-12 06:00:00,2122-02-12 06:00:00,2122-02-03 00:00:00,981.6,-29.66,39.24,981.6,-29.66,39.24,992.51,-24.99,37.98,988.93,-18.77,38.14,1009.29,-39.79,33.67
91,TC212203,Jack,A,0,2122-04-24 12:00:00,,2122-04-22 00:00:00,2122-04-22 00:00:00,2122-04-19 18:00:00,992.3,-93.18,27.47,992.3,-93.18,27.47,1008.64,-88.01,27.68,,,,1007.92,-94.68,25.53
92,TC212206,Michelle,A,-1,,,2122-09-15 18:00:00,2122-09-15 18:00:00,2122-09-12 00:00:00,989.8,-36.57,14.52,989.8,-36.57,14.52,,,,,,,1010.25,-17.35,9.42
93,TC212207,Ollie,A,0,2122-09-19 06:00:00,,2122-09-21 06:00:00,2122-09-18 18:00:00,2122-09-15 18:00:00,947.43,-52.12,40.47,982.65,-72.43,30.35,987.46,-70.58,31.53,,,,1000.27,-67.39,24.93
94,TC212208,Rosita,A,0,2122-11-16 12:00:00,,2122-11-17 18:00:00,2122-11-16 06:00:00,2122-11-12 00:00:00,969.31,-31.48,50.62,972.11,-42.75,47.47,972.57,-42.2,48.86,,,,992.04,-64.85,37.77
95,TC212209,Sergio,A,2,2122-12-17 12:00:00,2122-12-17 18:00:00,2122-12-14 06:00:00,2122-12-14 06:00:00,2122-12-12 18:00:00,985.93,-43.05,34.43,985.93,-43.05,34.43,1005.11,-20.57,43.29,1007.99,-17.5,44.0,1002.82,-51.77,28.68
96,TC212303,Alex,A,-1,,,2123-06-08 06:00:00,2123-06-08 06:00:00,2123-06-05 06:00:00,983.46,-81.12,17.02,983.46,-81.12,17.02,,,,,,,1003.21,-83.09,12.9
97,TC212305,Colin,A,-1,,,2123-09-11 18:00:00,2123-09-11 18:00:00,2123-09-08 18:00:00,988.66,-21.08,16.58,988.66,-21.08,16.58,,,,,,,1005.91,-10.24,13.93
98,TC212306,Dawn,A,0,2123-09-24 06:00:00,,2123-09-20 18:00:00,2123-09-20 18:00:00,2123-09-15 00:00:00,945.58,-55.27,40.35,945.58,-55.27,40.35,990.73,-22.02,50.32,,,,1017.9,-53.72,30.33
99,TC212307,Ernest,A,1,2123-10-06 00:00:00,2123-10-06 06:00:00,2123-10-03 18:00:00,2123-10-03 18:00:00,2123-09-19 00:00:00,945.6,-55.76,39.55,945.6,-55.76,39.55,1002.7,-44.3,42.14,1002.04,-41.99,43.7,1011.15,-25.57,9.13
100,TC212401,Grace,A,2,2124-05-07 18:00:00,2124-05-10 00:00:00,2124-05-10 00:00:00,2124-05-07 00:00:00,2124-05-05 06:00:00,993.57,-81.06,41.25,1005.92,-94.85,29.73,1007.47,-94.61,33.13,993.57,-81.06,41.25,1006.19,-91.32,27.3
101,TC212402,Harrison,A,1,2124-10-02 00:00:00,2124-10-07 00:00:00,2124-09-30 06:00:00,2124-09-30 06:00:00,2124-09-19 18:00:00,923.72,-55.92,22.89,923.72,-55.92,22.89,924.02,-53.05,25.97,988.26,-27.32,49.92,1012.25,-13.08,8.38
102,TC212502,Lydia,A,2,2125-09-13 06:00:00,2125-09-13 12:00:00,2125-09-05 18:00:00,2125-09-05 18:00:00,2125-09-01 12:00:00,993.58,-36.55,19.86,993.58,-36.55,19.86,1006.63,-55.77,42.05,1000.11,-53.47,40.43,1005.83,-20.45,11.95
103,TC212503,Mario,A,0,2125-11-11 18:00:00,,2125-11-13 12:00:00,2125-11-09 00:00:00,2125-11-07 12:00:00,976.15,-52.54,22.23,991.27,-76.33,19.94,990.42,-65.22,20.93,,,,1001.58,-82.19,16.83
104,TC212504,Nicole,A,3,2125-11-22 06:00:00,2125-11-22 06:00:00,2125-11-20 06:00:00,2125-11-20 06:00:00,2125-11-20 12:00:00,977.85,-61.7,40.19,977.85,-61.7,40.19,996.36,-49.66,37.86,996.36,-49.66,37.86,979.83,-58.75,40.62
105,TC212601,Song,A,1,2126-01-07 18:00:00,2126-01-08 00:00:00,2126-01-03 12:00:00,2126-01-03 12:00:00,2126-01-02 12:00:00,980.5,-60.53,40.47,980.5,-60.53,40.47,992.71,-26.29,43.12,993.52,-24.59,45.9,1008.16,-74.29,35.04
106,TC212604,Audrey,A,2,2126-05-16 00:00:00,2126-05-16 06:00:00,2126-05-12 00:00:00,2126-05-12 00:00:00,2126-05-07 18:00:00,973.58,-64.29,35.38,973.58,-64.29,35.38,1002.2,-28.33,36.35,1003.64,-25.6,36.84,1003.14,-87.48,26.63
107,TC212605,Brandon,A,1,2126-09-05 18:00:00,2126-09-07 00:00:00,2126-09-06 06:00:00,2126-09-05 12:00:00,2126-08-31 18:00:00,997.82,-55.6,45.44,1000.0,-61.0,42.0,999.97,-59.57,42.61,1001.43,-45.67,48.32,1012.43,-73.95,35.53
108,TC212606,Christine,A,1,2126-09-10 06:00:00,2126-09-10 18:00:00,2126-09-11 18:00:00,2126-09-09 12:00:00,2126-09-06 00:00:00,989.55,-32.5,43.25,999.35,-61.25,36.9,1000.23,-53.32,38.01,1000.64,-47.75,38.75,1013.52,-77.52,30.88
109,TC212701,Elyse,A,0,2127-03-20 12:00:00,,2127-03-18 06:00:00,2127-03-18 06:00:00,2127-03-16 12:00:00,966.39,-49.1,43.53,966.39,-49.1,43.53,977.84,-43.56,49.12,,,,990.53,-42.96,42.5
110,TC212702,Geoffrey,A,1,2127-04-21 06:00:00,2127-04-22 18:00:00,2127-04-16 06:00:00,2127-04-16 06:00:00,2127-04-12 12:00:00,965.12,-72.63,37.31,965.12,-72.63,37.31,986.63,-62.16,36.71,988.94,-64.29,42.26,1004.72,-78.68,24.34
111,TC212704,Jacob,A,1,2127-06-14 18:00:00,2127-06-15 18:00:00,2127-06-16 18:00:00,2127-06-14 12:00:00,2127-06-07 00:00:00,972.72,-31.57,51.63,992.25,-57.07,39.86,990.71,-53.68,40.72,988.96,-38.11,44.55,1008.5,-91.06,30.44
112,TC212706,Luke,A,-1,,,2127-08-04 06:00:00,2127-08-04 06:00:00,2127-08-01 00:00:00,999.35,-28.07,15.08,999.35,-28.07,15.08,,,,,,,1010.73,-12.29,8.49
113,TC212707,Maho,A,1,2127-10-22 12:00:00,2127-10-27 00:00:00,2127-10-20 18:00:00,2127-10-20 18:00:00,2127-10-17 12:00:00,944.64,-29.42,31.38,944.64,-29.42,31.38,968.67,-28.42,31.12,999.95,-2.43,39.45,1006.7,-35.87,30.53
114,TC212709,Peach,A,-1,,,2127-12-09 06:00:00,2127-12-09 06:00:00,2127-12-08 18:00:00,979.99,-63.47,43.52,979.99,-63.47,43.52,,,,,,,995.98,-67.62,41.67
115,TC212710,Samson,A,0,2128-01-01 18:00:00,,2127-12-31 06:00:00,2127-12-31 06:00:00,2127-12-30 12:00:00,956.3,-35.01,47.94,956.3,-35.01,47.94,972.92,-16.32,46.84,,,,963.59,-42.35,46.07
116,TC212802,Victor,A,3,2128-01-22 06:00:00,2128-01-22 06:00:00,2128-01-19 18:00:00,2128-01-19 18:00:00,2128-01-19 06:00:00,960.57,-40.76,43.45,960.57,-40.76,43.45,995.26,-27.0,33.75,995.26,-27.0,33.75,965.24,-40.85,41.73
117,TC212803,Andy,A,-1,,,2128-06-15 12:00:00,2128-06-15 12:00:00,2128-06-11 06:00:00,957.96,-96.6,24.4,957.96,-96.6,24.4,,,,,,,1009.63,-87.15,28.23
118,TC212806,Dorcas,A,0,2128-10-19 12:00:00,,2128-10-25 00:00:00,2128-10-19 00:00:00,2128-10-12 06:00:00,956.61,-39.63,47.17,985.11,-83.13,18.1,985.79,-81.64,18.65,,,,1008.21,-84.62,16.64
119,TC212807,Erik,A,2,2128-11-24 12:00:00,2128-11-25 12:00:00,2128-11-23 00:00:00,2128-11-23 00:00:00,2128-11-19 18:00:00,994.85,-62.45,21.4,994.85,-62.45,21.4,1006.88,-53.76,24.41,1012.06,-49.25,26.5,1003.57,-76.27,16.84
120,TC212902,Josie,A,-1,,,2129-09-04 06:00:00,2129-09-04 06:00:00,2129-08-31 12:00:00,997.96,-36.22,24.32,997.96,-36.22,24.32,,,,,,,1003.29,-29.83,13.95
121,TC212903,Keith,A,0,2129-09-29 06:00:00,,2129-09-24 06:00:00,2129-09-24 06:00:00,2129-09-17 18:00:00,979.64,-46.72,24.0,979.64,-46.72,24.0,1010.45,-48.76,34.02,,,,1002.79,-31.71,12.6
122,TC212905,Marco,A,1,2129-10-28 06:00:00,2129-10-29 06:00:00,2129-10-28 12:00:00,2129-10-28 00:00:00,2129-10-22 00:00:00,963.18,-58.26,42.76,967.11,-62.06,40.26,963.38,-60.53,41.82,984.38,-48.02,46.75,1002.98,-57.37,38.42
123,TC212906,Noelle,A,-1,,,2129-11-18 18:00:00,2129-11-18 18:00:00,2129-11-18 06:00:00,998.65,-60.48,25.72,998.65,-60.48,25.72,,,,,,,1008.66,-58.97,25.25
124,TC213001,Shannon,A,-1,,,2130-03-28 06:00:00,2130-03-28 06:00:00,2130-03-25 18:00:00,994.25,-72.21,30.08,994.25,-72.21,30.08,,,,,,,1006.98,-64.99,37.94
125,TC213002,Thomas,A,-1,,,2130-08-02 00:00:00,2130-08-02 00:00:00,2130-07-30 06:00:00,983.9,-92.91,29.32,983.9,-92.91,29.32,,,,,,,1010.62,-84.37,26.17
126,TC213003,Winnie,A,1,2130-09-28 18:00:00,2130-09-29 00:00:00,2130-09-26 06:00:00,2130-09-26 06:00:00,2130-09-17 12:00:00,971.08,-74.07,29.52,971.08,-74.07,29.52,1001.79,-73.39,41.08,998.55,-70.49,43.27,1008.28,-38.15,13.68
127,TC213101,Cissy,B,-1,,,2131-01-23 18:00:00,2131-01-23 18:00:00,2131-01-23 12:00:00,988.07,-22.86,35.48,988.07,-22.86,35.48,,,,,,,989.4,-23.99,36.14
128,TC213102,Dominic,B,0,2131-03-09 06:00:00,,2131-03-06 18:00:00,2131-03-06 18:00:00,2131-03-04 12:00:00,963.3,-24.46,35.39,963.3,-24.46,35.39,990.95,-25.75,52.75,,,,979.84,-50.18,37.11
129,TC213103,Esther,B,3,2131-03-12 00:00:00,2131-03-12 00:00:00,2131-03-10 18:00:00,2131-03-10 18:00:00,2131-03-07 12:00:00,969.97,-32.56,47.59,969.97,-32.56,47.59,980.63,-20.25,50.75,980.63,-20.25,50.75,975.99,-55.22,34.26
130,TC213104,Gabriel,B,-1,,,2131-06-04 06:00:00,2131-06-04 06:00:00,2131-05-25 18:00:00,950.57,-96.16,28.24,950.57,-96.16,28.24,,,,,,,1002.61,-84.12,19.75
131,TC213105,Helena,B,1,2131-07-05 12:00:00,2131-07-06 06:00:00,2131-07-05 06:00:00,2131-07-05 06:00:00,2131-06-29 18:00:00,981.88,-61.69,42.81,981.88,-61.69,42.81,986.35,-58.24,44.46,996.17,-45.0,50.75,1013.35,-76.18,31.02
132,TC213106,John,B,0,2131-09-23 00:00:00,,2131-09-21 18:00:00,2131-09-21 18:00:00,2131-09-10 12:00:00,958.38,-44.37,33.2,958.38,-44.37,33.2,969.93,-40.99,38.13,,,,1005.97,-16.56,18.84
133,TC213201,Mandy,B,0,2132-04-12 00:00:00,,2132-04-10 00:00:00,2132-04-10 00:00:00,2132-04-07 12:00:00,994.18,-84.56,27.25,994.18,-84.56,27.25,1003.38,-82.53,33.45,,,,1011.36,-80.96,23.51
134,TC213202,Nathan,B,2,2132-05-31 12:00:00,2132-06-03 06:00:00,2132-05-30 00:00:00,2132-05-30 00:00:00,2132-05-27 06:00:00,987.89,-89.73,29.65,987.89,-89.73,29.65,1000.36,-90.84,36.54,1007.38,-74.36,39.79,1008.35,-90.53,24.12
135,TC213203,Queenie,B,1,2132-08-04 12:00:00,2132-08-06 00:00:00,2132-08-05 12:00:00,2132-07-30 12:00:00,2132-07-30 18:00:00,998.19,-38.04,40.38,1001.67,-78.45,36.07,1000.99,-46.51,38.57,1003.55,-33.25,41.0,1004.25,-78.07,36.43
136,TC213205,Tatiana,B,-1,,,2132-12-07 18:00:00,2132-12-07 18:00:00,2132-12-05 18:00:00,959.03,-40.32,50.87,959.03,-40.32,50.87,,,,,,,966.55,-48.75,40.24
137,TC213301,William,B,0,2133-01-20 18:00:00,,2133-01-21 12:00:00,2133-01-19 06:00:00,2133-01-18 00:00:00,981.08,-37.6,35.29,992.91,-29.07,34.99,993.99,-32.63,38.31,,,,1005.45,-42.05,28.29
138,TC213303,Bella,B,1,2133-02-05 00:00:00,2133-02-05 18:00:00,2133-02-03 06:00:00,2133-02-03 06:00:00,2133-02-02 00:00:00,989.58,-49.52,32.69,989.58,-49.52,32.69,1002.51,-47.0,30.75,1006.88,-46.25,30.0,996.13,-49.94,27.58
139,TC213306,Erling,B,1,2133-03-29 00:00:00,2133-03-30 00:00:00,2133-03-25 06:00:00,2133-03-25 06:00:00,2133-03-24 18:00:00,992.54,-38.96,22.52,992.54,-38.96,22.52,1000.99,-40.89,34.89,1003.47,-37.96,41.14,997.05,-40.88,22.93
140,TC213307,Greta,B,0,2133-04-09 00:00:00,,2133-04-07 12:00:00,2133-04-07 12:00:00,2133-04-07 06:00:00,993.89,-67.6,37.21,993.89,-67.6,37.21,998.38,-63.65,34.18,,,,994.04,-67.95,37.26
141,TC213308,Hendrik,B,-1,,,2133-04-25 06:00:00,2133-04-25 06:00:00,2133-04-25 12:00:00,984.06,-71.35,34.09,984.06,-71.35,34.09,,,,,,,984.62,-70.49,34.87
142,TC213312,Manuel,B,0,2133-11-13 00:00:00,,2133-11-11 12:00:00,2133-11-11 12:00:00,2133-11-10 06:00:00,977.23,-56.51,42.98,977.23,-56.51,42.98,995.79,-58.75,46.5,,,,986.52,-59.43,40.09
143,TC213404,Timothy,B,-1,,,2134-08-02 06:00:00,2134-08-02 06:00:00,2134-07-31 06:00:00,991.01,-32.4,15.24,991.01,-32.4,15.24,,,,,,,1009.42,-30.69,11.24
144,TC213406,Alissa,B,2,2134-08-29 00:00:00,2134-08-31 06:00:00,2134-08-22 00:00:00,2134-08-22 00:00:00,2134-08-19 12:00:00,997.3,-42.67,15.93,997.3,-42.67,15.93,1017.06,-74.0,28.5,1018.09,-67.25,32.75,1011.0,-39.54,13.01
145,TC213409,Daniel,B,1,2134-09-20 06:00:00,2134-09-22 00:00:00,2134-09-18 06:00:00,2134-09-18 06:00:00,2134-09-13 12:00:00,923.37,-79.63,26.44,923.37,-79.63,26.44,956.11,-77.99,34.43,991.81,-70.49,42.75,1009.42,-48.95,14.94
146,TC213410,Emmelyn,B,1,2134-10-15 18:00:00,2134-10-17 12:00:00,2134-10-16 06:00:00,2134-10-15 12:00:00,2134-10-13 12:00:00,990.07,-64.41,40.42,999.09,-66.68,36.54,997.8,-65.98,37.83,992.23,-55.21,50.03,1007.03,-68.2,32.05
147,TC213504,Luca,B,2,2135-09-09 18:00:00,2135-09-10 00:00:00,2135-09-11 12:00:00,2135-09-07 18:00:00,2135-09-07 00:00:00,995.79,-16.75,56.75,1013.47,-40.55,37.28,1016.51,-39.25,42.5,1017.23,-37.75,43.75,1016.14,-42.79,37.18
148,TC213506,Nabil,B,1,2135-10-19 00:00:00,2135-10-20 00:00:00,2135-10-21 06:00:00,2135-10-18 18:00:00,2135-10-14 06:00:00,970.22,-18.25,51.25,988.03,-48.48,38.15,985.47,-46.44,40.4,982.4,-26.92,49.0,1012.5,-38.59,32.46
149,TC213507,Rosalina,B,1,2135-10-30 18:00:00,2135-11-02 12:00:00,2135-11-01 00:00:00,2135-10-30 12:00:00,2135-10-28 06:00:00,993.42,-65.03,38.57,997.58,-68.8,29.22,997.89,-68.16,30.05,1007.12,-54.3,43.43,1007.88,-74.26,22.95
150,TC213508,Skyler,B,2,2135-11-19 18:00:00,2135-11-20 12:00:00,2135-11-16 18:00:00,2135-11-16 18:00:00,2135-11-15 18:00:00,973.88,-56.39,41.82,973.88,-56.39,41.82,1006.66,-47.06,42.13,983.62,-52.71,41.3,982.36,-62.44,37.45
151,TC213509,Tracy,B,-1,,,2135-12-04 18:00:00,2135-12-04 18:00:00,2135-11-30 06:00:00,985.84,-25.16,42.89,985.84,-25.16,42.89,,,,,,,1005.33,-30.95,26.6
152,TC213602,Alberto,B,0,2136-05-12 00:00:00,,2136-05-12 06:00:00,2136-05-11 18:00:00,2136-05-09 18:00:00,989.63,-60.24,42.8,991.57,-62.6,38.25,991.99,-61.55,40.01,,,,1000.59,-66.79,25.96
153,TC213603,Blaise,B,1,2136-06-24 00:00:00,2136-06-24 06:00:00,2136-06-22 18:00:00,2136-06-22 18:00:00,2136-06-19 12:00:00,930.27,-63.58,33.09,930.27,-63.58,33.09,972.58,-46.73,40.88,982.56,-42.37,43.82,1000.39,-68.74,41.87
154,TC213604,Carlos,B,-1,,,2136-09-22 12:00:00,2136-09-22 12:00:00,2136-09-14 12:00:00,904.63,-86.25,20.03,904.63,-86.25,20.03,,,,,,,1010.82,-38.65,12.81
155,TC213606,Frederick,B,1,2136-10-01 12:00:00,2136-10-03 18:00:00,2136-09-30 00:00:00,2136-09-30 00:00:00,2136-09-23 06:00:00,942.75,-53.9,25.8,942.75,-53.9,25.8,957.06,-48.11,32.42,984.42,-29.69,53.45,1006.42,-29.23,15.18
156,TC213607,Gwyneth,B,1,2136-10-13 06:00:00,2136-10-21 18:00:00,2136-10-14 00:00:00,2136-10-11 18:00:00,2136-10-03 18:00:00,920.08,-76.35,29.82,932.41,-81.61,19.32,930.46,-77.57,26.36,987.64,-31.04,49.12,1008.38,-82.05,13.98
157,TC213608,Ian,B,1,2136-10-30 06:00:00,2136-10-30 18:00:00,2136-10-28 12:00:00,2136-10-28 12:00:00,2136-10-12 06:00:00,964.41,-18.26,44.37,964.41,-18.26,44.37,1000.27,-11.96,42.88,1008.54,-10.75,41.75,1001.96,-69.37,24.61
158,TC213609,Jessica,B,2,2136-11-28 06:00:00,2136-11-28 12:00:00,2136-11-26 06:00:00,2136-11-26 06:00:00,2136-11-24 00:00:00,982.59,-32.26,39.97,982.59,-32.26,39.97,996.28,-25.98,45.13,998.54,-26.39,47.73,998.6,-34.87,31.17
159,TC213702,Manfred,B,1,2137-08-03 18:00:00,2137-08-05 00:00:00,2137-08-04 06:00:00,2137-08-03 06:00:00,2137-08-01 00:00:00,986.3,-60.92,42.27,995.27,-71.94,37.21,994.57,-67.74,39.87,999.18,-52.48,43.51,1011.11,-80.68,30.44
160,TC213703,Oxlip,B,3,2137-08-19 00:00:00,2137-08-19 00:00:00,2137-08-15 18:00:00,2137-08-15 18:00:00,2137-08-06 18:00:00,976.65,-88.19,25.98,976.65,-88.19,25.98,1006.66,-96.11,30.57,1006.66,-96.11,30.57,1004.77,-32.62,13.0
161,TC213704,Romeo,B,0,2137-11-29 06:00:00,,2137-11-30 06:00:00,2137-11-28 06:00:00,2137-11-26 12:00:00,965.63,-26.35,48.86,975.3,-38.45,38.59,978.82,-31.76,36.33,,,,984.93,-36.83,37.31
162,TC213705,Sofiee,B,1,2137-12-12 00:00:00,2137-12-13 06:00:00,2137-12-12 12:00:00,2137-12-08 12:00:00,2137-12-07 18:00:00,990.57,-39.97,36.14,994.2,-63.75,35.66,997.31,-45.67,31.5,992.41,-35.06,35.55,1011.41,-67.2,33.15
163,TC213801,Travis,B,2,2138-01-30 18:00:00,2138-01-31 12:00:00,2138-01-27 12:00:00,2138-01-27 12:00:00,2138-01-25 00:00:00,984.44,-31.32,35.2,984.44,-31.32,35.2,1013.25,-19.0,35.5,1017.24,-14.75,37.5,1008.83,-48.81,31.92
164,TC213802,Yan,B,2,2138-03-29 00:00:00,2138-03-29 06:00:00,2138-03-24 18:00:00,2138-03-24 18:00:00,2138-03-25 00:00:00,995.98,-39.97,32.1,995.98,-39.97,32.1,1011.52,-29.13,35.17,1011.64,-27.26,36.05,997.37,-39.74,31.61
165,TC213803,Angela,B,1,2138-04-24 00:00:00,2138-04-24 12:00:00,2138-04-24 12:00:00,2138-04-23 18:00:00,2138-04-20 06:00:00,988.42,-65.02,43.05,1000.83,-70.11,36.03,996.0,-68.88,38.33,988.42,-65.02,43.05,1014.41,-72.89,30.76
166,TC213805,Corliss,B,0,2138-10-09 06:00:00,,2138-10-09 18:00:00,2138-10-08 18:00:00,2138-10-05 12:00:00,984.39,-45.13,44.22,990.16,-54.6,38.34,986.95,-50.62,40.99,,,,1013.02,-53.12,33.71
167,TC213901,Ivanka,B,0,2139-03-21 06:00:00,,2139-03-21 06:00:00,2139-03-21 00:00:00,2139-03-15 18:00:00,959.7,-54.67,44.94,965.98,-55.14,42.67,959.7,-54.67,44.94,,,,1006.14,-90.67,16.25
168,TC213902,Justin,B,1,2139-06-09 12:00:00,2139-06-10 12:00:00,2139-06-09 00:00:00,2139-06-09 00:00:00,2139-06-02 12:00:00,968.31,-89.82,29.26,968.31,-89.82,29.26,991.62,-89.02,32.75,999.78,-84.71,37.66,1009.13,-86.59,15.59
169,TC213903,Kyan,B,1,2139-10-26 06:00:00,2139-10-27 18:00:00,2139-10-26 00:00:00,2139-10-26 00:00:00,2139-10-18 12:00:00,934.51,-47.24,34.36,934.51,-47.24,34.36,944.41,-46.44,36.45,992.04,-31.05,45.72,1009.28,-39.47,35.1
170,TC213904,Lionel,B,1,2139-10-28 18:00:00,2139-10-31 00:00:00,2139-10-30 12:00:00,2139-10-28 12:00:00,2139-10-26 18:00:00,946.25,-52.31,42.26,977.78,-67.99,33.09,974.36,-66.39,33.1,958.61,-47.21,45.64,998.56,-74.09,34.48
171,TC213905,Melody,B,-1,,,2139-11-21 00:00:00,2139-11-21 00:00:00,2139-11-16 00:00:00,975.27,-40.69,39.52,975.27,-40.69,39.52,,,,,,,1002.49,-78.02,26.03
172,TC214002,Savio,B,0,2140-01-14 12:00:00,,2140-01-11 18:00:00,2140-01-11 18:00:00,2140-01-11 00:00:00,942.28,-66.24,42.46,942.28,-66.24,42.46,971.74,-46.25,49.75,,,,953.16,-73.87,37.48
173,TC214003,Torie,B,0,2140-06-12 00:00:00,,2140-06-10 06:00:00,2140-06-10 06:00:00,2140-06-03 18:00:00,972.66,-35.0,46.0,972.66,-35.0,46.0,991.08,-24.25,46.0,,,,1007.4,-85.18,15.77
174,TC214004,Yoshi,B,0,2140-09-10 18:00:00,,2140-09-10 18:00:00,2140-09-04 18:00:00,2140-08-30 12:00:00,960.12,-77.77,33.87,963.49,-74.92,21.58,960.12,-77.77,33.87,,,,1011.88,-43.58,12.46
175,TC214005,Angelo,B,1,2140-09-26 18:00:00,2140-09-29 00:00:00,2140-09-27 18:00:00,2140-09-26 00:00:00,2140-09-15 00:00:00,904.89,-58.16,40.25,907.21,-67.51,31.15,909.67,-65.21,34.25,955.36,-49.91,49.58,1011.25,-35.66,13.3
176,TC214006,Brenda,B,-1,,,2140-09-29 00:00:00,2140-09-29 00:00:00,2140-09-23 00:00:00,999.53,-97.14,21.68,999.53,-97.14,21.68,,,,,,,1007.84,-85.74,18.75
177,TC214008,Doris,B,-1,,,2140-11-10 12:00:00,2140-11-10 12:00:00,2140-11-10 18:00:00,979.46,-42.13,42.91,979.46,-42.13,42.91,,,,,,,980.22,-41.74,42.26
178,TC214009,Facundo,B,2,2140-11-17 06:00:00,2140-11-18 06:00:00,2140-11-15 18:00:00,2140-11-15 18:00:00,2140-11-15 06:00:00,994.59,-42.68,42.02,994.59,-42.68,42.02,1003.56,-39.55,46.15,1001.54,-36.0,49.5,999.45,-41.29,43.33
179,TC214010,Gianna,B,0,2140-11-21 18:00:00,,2140-11-22 12:00:00,2140-11-21 12:00:00,2140-11-19 12:00:00,975.05,-35.44,46.67,992.41,-40.21,36.62,988.43,-38.47,38.05,,,,1005.6,-48.39,32.9
180,TC214101,Inaki,B,1,2141-05-10 00:00:00,2141-05-10 12:00:00,2141-05-04 12:00:00,2141-05-04 12:00:00,2141-05-02 18:00:00,986.94,-47.25,31.35,986.94,-47.25,31.35,1004.66,-45.61,36.29,1005.13,-42.68,40.71,1000.45,-49.34,27.24
181,TC214102,Jaime,B,1,2141-08-28 00:00:00,2141-09-01 12:00:00,2141-08-30 12:00:00,2141-08-24 12:00:00,2141-08-16 18:00:00,961.76,-45.56,44.88,992.12,-68.3,26.82,993.08,-67.63,36.53,996.85,-40.4,49.2,1008.3,-37.09,12.91
182,TC214103,Kelechi,B,3,2141-09-23 06:00:00,2141-09-23 06:00:00,2141-09-16 18:00:00,2141-09-16 18:00:00,2141-09-12 12:00:00,988.39,-31.24,18.23,988.39,-31.24,18.23,1008.18,-35.75,36.25,1008.18,-35.75,36.25,1009.11,-24.61,14.52
183,TC214104,Laurel,B,3,2141-10-17 00:00:00,2141-10-17 00:00:00,2141-10-14 18:00:00,2141-10-14 18:00:00,2141-10-12 18:00:00,992.29,-57.86,38.44,992.29,-57.86,38.44,1001.27,-53.61,46.47,1001.27,-53.61,46.47,1010.53,-70.51,27.51
184,TC214105,Micah,B,1,2141-11-16 00:00:00,2141-11-16 06:00:00,2141-11-17 18:00:00,2141-11-09 18:00:00,2141-11-10 00:00:00,984.21,1.75,52.25,988.55,-39.46,41.12,1000.69,-36.25,47.25,997.44,-32.25,49.25,989.61,-41.05,40.18
185,TC214106,Olivia,B,-1,,,2141-12-03 18:00:00,2141-12-03 18:00:00,2141-12-02 18:00:00,982.48,-21.93,39.99,982.48,-21.93,39.99,,,,,,,996.22,-28.89,36.43
186,TC214201,Ruben,B,0,2142-03-19 12:00:00,,2142-03-15 06:00:00,2142-03-15 06:00:00,2142-03-13 00:00:00,945.36,-57.8,40.41,945.36,-57.8,40.41,998.02,-30.25,48.75,,,,994.7,-82.08,29.05
187,TC214203,Toby,B,0,2142-09-24 00:00:00,,2142-09-25 00:00:00,2142-09-23 18:00:00,2142-09-20 06:00:00,949.2,-55.27,42.84,968.24,-67.35,33.96,967.6,-66.06,35.33,,,,1010.14,-60.26,23.47
188,TC214301,Zoe,B,-1,,,2143-05-10 12:00:00,2143-05-10 12:00:00,2143-05-08 18:00:00,989.52,-79.71,28.98,989.52,-79.71,28.98,,,,,,,1005.43,-77.13,28.31
189,TC214302,Alice,B,-1,,,2143-05-17 06:00:00,2143-05-17 06:00:00,2143-05-14 18:00:00,968.7,-60.25,37.37,968.7,-60.25,37.37,,,,,,,1002.33,-72.99,27.21
190,TC214303,Bruce,B,1,2143-05-28 18:00:00,2143-06-02 12:00:00,2143-06-01 12:00:00,2143-05-27 06:00:00,2143-05-25 18:00:00,988.23,-50.82,44.37,1001.87,-85.14,37.78,1007.8,-79.99,35.93,992.68,-44.52,49.75,1004.74,-88.75,39.32
191,TC214304,Candy,B,1,2143-11-15 18:00:00,2143-11-17 12:00:00,2143-11-16 18:00:00,2143-11-13 18:00:00,2143-11-14 00:00:00,998.74,-14.79,35.14,1002.4,-33.41,33.25,1002.26,-21.25,33.96,1010.72,-10.25,35.5,1003.87,-31.77,33.0
192,TC214403,Ivy,B,0,2144-02-28 06:00:00,,2144-02-22 18:00:00,2144-02-22 18:00:00,2144-02-21 12:00:00,970.69,-71.87,34.7,970.69,-71.87,34.7,1014.61,-41.75,23.25,,,,1005.26,-85.52,28.68
193,TC214407,Michelle,B,3,2144-07-25 06:00:00,2144-07-25 06:00:00,2144-07-21 18:00:00,2144-07-21 18:00:00,2144-07-15 18:00:00,938.74,-59.94,35.16,938.74,-59.94,35.16,996.7,-36.11,48.99,996.7,-36.11,48.99,1010.55,-46.83,17.59
194,TC214408,Ollie,B,0,2144-08-15 06:00:00,,2144-08-08 06:00:00,2144-08-08 06:00:00,2144-08-03 18:00:00,997.16,-42.25,13.66,997.16,-42.25,13.66,1015.61,-86.75,26.5,,,,1011.43,-26.72,9.42
195,TC214410,Sergio,B,0,2144-09-07 12:00:00,,2144-09-06 12:00:00,2144-09-06 12:00:00,2144-09-03 00:00:00,945.43,-54.66,40.58,945.43,-54.66,40.58,965.41,-43.71,41.96,,,,1006.09,-62.15,30.07
196,TC214412,Zack,B,0,2144-10-06 00:00:00,,2144-09-26 18:00:00,2144-09-26 18:00:00,2144-09-17 18:00:00,915.56,-72.78,23.95,915.56,-72.78,23.95,968.71,-29.26,47.77,,,,1011.29,-43.94,11.46
197,TC214413,Alex,B,0,2144-09-29 12:00:00,,2144-09-25 12:00:00,2144-09-25 12:00:00,2144-09-20 12:00:00,947.72,-52.45,19.97,947.72,-52.45,19.97,977.36,-51.07,31.24,,,,1008.97,-37.26,14.8
198,TC214414,Beatrice,B,1,2144-10-30 06:00:00,2144-10-31 12:00:00,2144-10-30 18:00:00,2144-10-29 06:00:00,2144-10-27 18:00:00,986.98,-57.03,43.01,991.98,-60.12,36.81,990.88,-59.43,40.09,992.75,-51.5,45.75,1007.74,-55.73,31.75
199,TC214415,Colin,B,1,2144-11-09 12:00:00,2144-11-09 18:00:00,2144-11-17 06:00:00,2144-11-08 06:00:00,2144-11-06 18:00:00,977.52,-39.26,44.11,1003.84,-44.24,34.82,1006.27,-41.91,34.08,1006.04,-41.46,33.17,1010.87,-47.43,29.13
200,TC214501,Dawn,B,1,2145-03-22 12:00:00,2145-03-26 18:00:00,2145-03-25 18:00:00,2145-03-20 06:00:00,2145-03-20 12:00:00,963.59,-36.24,48.66,976.3,-45.45,35.2,988.11,-36.97,35.46,993.24,-31.25,48.25,976.88,-44.37,33.2
201,TC214502,Ernest,B,-1,,,2145-04-03 06:00:00,2145-04-03 06:00:00,2145-04-03 00:00:00,961.41,-43.9,41.48,961.41,-43.9,41.48,,,,,,,962.82,-45.84,41.15
202,TC214503,Grace,B,0,2145-08-27 00:00:00,,2145-08-24 00:00:00,2145-08-24 00:00:00,2145-08-17 12:00:00,922.18,-68.77,33.14,922.18,-68.77,33.14,950.07,-68.59,44.01,,,,1005.99,-43.05,16.15
203,TC214504,Harrison,B,1,2145-09-02 12:00:00,2145-09-03 18:00:00,2145-08-31 00:00:00,2145-08-31 00:00:00,2145-08-18 18:00:00,951.68,-60.69,37.17,951.68,-60.69,37.17,968.19,-57.5,42.83,1000.9,-40.22,51.21,1009.16,-25.22,13.19
204,TC214601,Janet,B,2,2146-06-04 18:00:00,2146-06-05 00:00:00,2146-06-06 12:00:00,2146-06-01 18:00:00,2146-05-29 18:00:00,973.68,-63.15,48.92,988.33,-80.16,31.55,997.89,-75.93,36.84,994.83,-74.12,37.75,1011.53,-83.14,31.72
205,TC214602,Kinen,B,1,2146-06-12 00:00:00,2146-06-13 00:00:00,2146-06-12 00:00:00,2146-06-11 18:00:00,2146-06-10 00:00:00,983.31,-74.37,35.67,987.9,-78.01,34.14,983.31,-74.37,35.67,1000.74,-53.96,40.02,1005.54,-88.23,21.18
206,TC214701,Phil,B,2,2147-01-12 00:00:00,2147-01-12 18:00:00,2147-01-09 06:00:00,2147-01-09 06:00:00,2147-01-06 00:00:00,977.82,-39.6,42.24,977.82,-39.6,42.24,998.94,-32.5,48.25,1003.15,-27.5,46.5,989.25,-50.57,36.53
207,TC214702,Song,B,0,2147-03-31 06:00:00,,2147-04-01 06:00:00,2147-03-31 00:00:00,2147-03-27 00:00:00,948.68,-46.58,46.36,978.7,-51.0,33.52,972.26,-49.73,35.65,,,,991.59,-63.44,32.52
208,TC214703,Tony,B,0,2147-05-19 00:00:00,,2147-05-13 00:00:00,2147-05-13 00:00:00,2147-05-09 06:00:00,939.59,-88.67,29.61,939.59,-88.67,29.61,996.05,-71.02,38.28,,,,1013.32,-89.55,28.86
209,TC214704,Victoria,B,2,2147-09-22 18:00:00,2147-09-25 12:00:00,2147-09-22 12:00:00,2147-09-22 12:00:00,2147-09-17 18:00:00,998.91,-91.43,42.17,998.91,-91.43,42.17,1002.19,-90.08,43.42,1006.85,-83.4,44.01,1016.59,-89.17,26.79
210,TC214705,Audrey,B,-1,,,2147-10-04 00:00:00,2147-10-04 00:00:00,2147-09-30 12:00:00,986.62,-86.84,20.44,986.62,-86.84,20.44,,,,,,,1006.74,-82.66,14.32
211,TC214706,Brandon,B,0,2147-10-27 00:00:00,,2147-10-27 00:00:00,2147-10-26 18:00:00,2147-10-21 00:00:00,969.93,-56.17,43.34,974.38,-56.34,39.92,969.93,-56.17,43.34,,,,1012.26,-57.02,30.9
212,TC214707,Christine,B,0,2147-11-22 12:00:00,,2147-11-20 06:00:00,2147-11-20 06:00:00,2147-11-18 06:00:00,974.7,-35.22,47.41,974.7,-35.22,47.41,990.8,-35.25,42.75,,,,984.96,-42.96,41.19
213,TC214708,David,B,0,2147-11-25 12:00:00,,2147-11-22 06:00:00,2147-11-22 06:00:00,2147-11-19 18:00:00,977.97,-27.26,45.67,977.97,-27.26,45.67,996.36,-16.0,45.75,,,,995.62,-39.48,34.0
214,TC214801,Geoffrey,B,2,2148-01-26 06:00:00,2148-01-26 12:00:00,2148-01-22 06:00:00,2148-01-22 06:00:00,2148-01-21 18:00:00,957.56,-58.73,42.95,957.56,-58.73,42.95,996.99,-17.75,42.5,997.83,-16.75,43.25,967.13,-61.55,40.01
215,TC214804,Katrina,B,2,2148-04-02 12:00:00,2148-04-03 06:00:00,2148-03-30 06:00:00,2148-03-30 06:00:00,2148-03-25 06:00:00,966.59,-38.5,43.0,966.59,-38.5,43.0,996.53,-26.5,39.75,999.89,-18.75,36.75,988.05,-68.35,38.62
216,TC214805,Luke,B,1,2148-04-28 12:00:00,2148-04-30 00:00:00,2148-04-23 12:00:00,2148-04-23 12:00:00,2148-04-20 18:00:00,976.48,-84.74,7.76,976.48,-84.74,7.76,995.17,-77.95,22.13,998.74,-71.5,25.0,1006.06,-83.51,10.89
217,TC214806,Maho,B,0,2148-05-17 12:00:00,,2148-05-19 06:00:00,2148-05-17 00:00:00,2148-05-08 00:00:00,964.43,-67.41,30.05,991.46,-82.37,19.62,990.26,-79.66,21.48,,,,1004.02,-75.28,9.58
218,TC214807,Nicholas,B,1,2148-06-05 12:00:00,2148-06-06 00:00:00,2148-06-04 12:00:00,2148-06-04 12:00:00,2148-06-01 00:00:00,949.32,-76.51,34.5,949.32,-76.51,34.5,974.54,-70.71,40.33,988.38,-64.38,44.48,1008.85,-71.25,23.16
219,TC214808,Peach,B,1,2148-08-21 00:00:00,2148-08-21 12:00:00,2148-08-19 00:00:00,2148-08-19 00:00:00,2148-08-16 12:00:00,998.22,-30.29,12.98,998.22,-30.29,12.98,1005.04,-25.59,20.99,1006.78,-27.2,22.33,1007.12,-20.7,16.4
220,TC214809,Samson,B,0,2148-09-09 12:00:00,,2148-09-04 12:00:00,2148-09-04 12:00:00,2148-08-30 12:00:00,898.64,-59.26,25.72,898.64,-59.26,25.72,959.8,-54.0,45.53,,,,1005.85,-41.72,11.43
221,TC214810,Tiffany,B,3,2148-09-21 12:00:00,2148-09-21 12:00:00,2148-09-13 12:00:00,2148-09-13 12:00:00,2148-09-03 00:00:00,957.4,-54.94,31.85,957.4,-54.94,31.85,1006.3,-39.96,45.84,1006.3,-39.96,45.84,1006.9,-29.76,11.67
222,TC214811,Victor,B,0,2148-09-29 06:00:00,,2148-09-20 06:00:00,2148-09-20 06:00:00,2148-09-11 12:00:00,905.85,-66.97,26.72,905.85,-66.97,26.72,978.33,-37.19,46.89,,,,1011.51,-31.3,14.34
223,TC214812,Andy,B,1,2148-10-17 12:00:00,2148-10-19 06:00:00,2148-10-18 18:00:00,2148-10-17 06:00:00,2148-10-14 12:00:00,969.39,-52.79,42.91,997.79,-60.39,31.46,996.59,-59.88,32.58,978.77,-47.11,47.97,1005.16,-62.6,24.57
224,TC214901,Charlie,B,0,2149-02-01 18:00:00,,2149-01-31 18:00:00,2149-01-31 18:00:00,2149-01-27 18:00:00,972.58,-26.43,47.07,972.58,-26.43,47.07,976.52,-22.63,46.5,,,,996.88,-36.36,37.84
225,TC214903,Erik,B,0,2149-11-24 06:00:00,,2149-11-22 18:00:00,2149-11-22 18:00:00,2149-11-18 18:00:00,999.53,-58.03,36.43,999.53,-58.03,36.43,1007.16,-52.89,43.46,,,,1014.45,-53.69,33.47
226,TC215001,Josie,B,-1,,,2150-01-17 18:00:00,2150-01-17 18:00:00,2150-01-17 18:00:00,961.06,-44.27,41.59,961.06,-44.27,41.59,,,,,,,961.06,-44.27,41.59
227,TC215002,Keith,B,1,2150-03-09 18:00:00,2150-03-10 00:00:00,2150-03-10 12:00:00,2150-03-09 12:00:00,2150-03-07 18:00:00,983.07,-70.08,43.49,991.09,-71.89,30.96,991.21,-74.23,33.44,989.81,-73.24,38.31,995.98,-76.06,24.42
228,TC215005,Noelle,B,0,2150-11-18 12:00:00,,2150-11-13 18:00:00,2150-11-13 18:00:00,2150-11-13 18:00:00,969.98,-21.41,40.68,969.98,-21.41,40.68,1018.07,-24.0,39.5,,,,969.98,-21.41,40.68
229,TC215006,Quinn,B,2,2150-12-17 18:00:00,2150-12-19 12:00:00,2150-12-17 18:00:00,2150-12-16 12:00:00,2150-12-15 06:00:00,970.09,-56.37,40.75,973.13,-50.19,41.94,970.09,-56.37,40.75,977.73,-38.21,38.66,984.12,-46.33,41.0
230,TC215007,Shannon,B,0,2150-12-30 00:00:00,,2150-12-21 00:00:00,2150-12-21 00:00:00,2150-12-20 18:00:00,958.2,-57.74,42.12,958.2,-57.74,42.12,1009.5,6.0,47.0,,,,961.86,-57.56,40.88
231,TC215101,Thomas,B,3,2151-02-10 12:00:00,2151-02-10 12:00:00,2151-02-12 06:00:00,2151-02-09 06:00:00,2151-02-04 00:00:00,966.68,-25.34,45.01,971.39,-38.29,37.68,979.2,-27.36,37.59,979.2,-27.36,37.59,1000.88,-42.71,30.38
232,TC215102,Winnie,B,-1,,,2151-03-07 18:00:00,2151-03-07 18:00:00,2151-03-06 06:00:00,979.18,-21.69,43.56,979.18,-21.69,43.56,,,,,,,988.92,-31.47,36.14
233,TC215105,Cissy,B,2,2151-04-25 18:00:00,2151-04-26 00:00:00,2151-04-20 18:00:00,2151-04-20 18:00:00,2151-04-18 12:00:00,974.33,-60.09,40.91,974.33,-60.09,40.91,1005.55,-42.25,36.75,1009.17,-41.5,36.0,997.74,-74.07,29.52
234,TC215106,Dominic,B,1,2151-05-14 06:00:00,2151-05-15 18:00:00,2151-05-14 06:00:00,2151-05-14 00:00:00,2151-05-12 12:00:00,997.24,-48.39,40.14,1000.82,-49.01,38.55,997.24,-48.39,40.14,1000.68,-36.5,47.5,1002.12,-55.19,27.97
235,TC215108,Gabriel,B,0,2151-12-09 06:00:00,,2151-12-07 18:00:00,2151-12-07 18:00:00,2151-12-04 12:00:00,974.17,-43.19,52.36,974.17,-43.19,52.36,987.96,-45.25,52.5,,,,991.32,-33.35,37.81
236,TC215202,John,B,0,2152-06-09 06:00:00,,2152-06-05 12:00:00,2152-06-05 12:00:00,2152-06-03 18:00:00,996.19,-89.65,20.68,996.19,-89.65,20.68,1001.73,-71.15,34.96,,,,1002.74,-93.71,19.48
237,TC215204,Lomy,B,1,2152-11-06 00:00:00,2152-11-06 12:00:00,2152-11-04 12:00:00,2152-11-04 12:00:00,2152-10-30 12:00:00,938.16,-93.68,26.92,938.16,-93.68,26.92,995.73,-91.17,32.53,1003.32,-89.08,34.88,1006.44,-88.2,17.62
238,TC215301,Mandy,B,1,2153-06-13 18:00:00,2153-06-14 18:00:00,2153-06-05 18:00:00,2153-06-05 18:00:00,2153-06-01 00:00:00,918.23,-86.52,27.51,918.23,-86.52,27.51,999.69,-59.34,42.7,999.17,-51.41,45.56,1010.53,-85.77,20.91
239,TC215305,Tatiana,B,0,2153-10-19 00:00:00,,2153-10-15 12:00:00,2153-10-15 12:00:00,2153-10-14 00:00:00,987.95,-73.55,31.74,987.95,-73.55,31.74,995.13,-62.75,41.0,,,,1006.16,-71.4,32.95
240,TC215306,William,B,1,2153-10-29 06:00:00,2153-10-29 12:00:00,2153-10-26 06:00:00,2153-10-26 06:00:00,2153-10-26 00:00:00,993.34,-52.16,33.05,993.34,-52.16,33.05,1003.23,-42.5,37.25,1005.62,-41.5,38.0,994.05,-52.65,32.24
241,TC215307,Aidan,B,0,2153-11-19 00:00:00,,2153-11-15 00:00:00,2153-11-15 00:00:00,2153-11-12 18:00:00,940.37,-38.64,42.98,940.37,-38.64,42.98,997.06,-20.25,50.0,,,,975.98,-47.62,38.44
242,TC215309,Carson,B,-1,,,2153-12-03 06:00:00,2153-12-03 06:00:00,2153-11-29 18:00:00,978.43,-26.94,44.85,978.43,-26.94,44.85,,,,,,,1000.64,-46.95,36.86
243,TC215401,Diana,B,-1,,,2154-02-14 00:00:00,2154-02-14 00:00:00,2154-02-11 18:00:00,974.95,-42.86,39.69,974.95,-42.86,39.69,,,,,,,976.84,-68.86,28.94
244,TC215402,Erling,B,2,2154-02-21 00:00:00,2154-02-21 06:00:00,2154-02-18 06:00:00,2154-02-18 06:00:00,2154-02-16 00:00:00,974.21,-39.74,47.35,974.21,-39.74,47.35,986.49,-34.0,48.0,988.81,-31.25,48.5,977.2,-50.25,40.09
245,TC215406,Kevin,B,2,2154-05-15 12:00:00,2154-05-21 00:00:00,2154-05-13 06:00:00,2154-05-13 06:00:00,2154-05-12 06:00:00,983.31,-58.71,39.55,983.31,-58.71,39.55,1009.03,-50.43,44.27,1015.44,-22.25,51.0,995.88,-57.77,33.12
246,TC215407,Laura,B,1,2154-06-14 00:00:00,2154-06-14 06:00:00,2154-06-11 12:00:00,2154-06-11 12:00:00,2154-06-05 00:00:00,951.46,-77.94,33.21,951.46,-77.94,33.21,984.22,-68.59,42.84,986.17,-66.99,43.9,1008.38,-88.36,16.58
247,TC215410,Rocco,B,1,2154-11-16 12:00:00,2154-11-18 00:00:00,2154-11-19 06:00:00,2154-11-14 18:00:00,2154-11-13 06:00:00,990.19,-20.25,52.25,992.15,-27.46,37.88,994.59,-23.47,44.06,1002.65,-23.25,51.0,995.9,-25.31,35.92
248,TC215411,Shirley,B,-1,,,2154-11-17 18:00:00,2154-11-17 18:00:00,2154-11-13 18:00:00,999.98,-74.47,27.13,999.98,-74.47,27.13,,,,,,,1004.28,-74.35,23.8
249,TC215412,Timothy,B,3,2154-11-19 12:00:00,2154-11-19 12:00:00,2154-11-16 18:00:00,2154-11-16 18:00:00,2154-11-17 00:00:00,980.48,-34.83,37.27,980.48,-34.83,37.27,991.86,-26.88,36.99,991.86,-26.88,36.99,981.04,-33.85,37.3
250,TC215502,Alissa,B,0,2155-10-16 00:00:00,,2155-10-12 06:00:00,2155-10-12 06:00:00,2155-10-08 06:00:00,995.62,-46.13,14.37,995.62,-46.13,14.37,1006.78,-43.11,29.68,,,,1005.83,-27.53,11.47
251,TC215602,Carmen,B,0,2156-09-16 18:00:00,,2156-09-09 06:00:00,2156-09-09 06:00:00,2156-09-05 00:00:00,999.17,-34.93,14.41,999.17,-34.93,14.41,1017.74,-78.25,28.25,,,,1008.23,-16.91,9.82
252,TC215604,Emmelyn,B,0,2156-11-17 18:00:00,,2156-11-18 06:00:00,2156-11-17 12:00:00,2156-11-14 18:00:00,975.34,-27.15,44.17,989.49,-29.71,37.47,978.77,-28.66,39.23,,,,998.9,-32.32,30.41
253,TC215605,Gregory,B,2,2156-12-05 12:00:00,2156-12-06 06:00:00,2156-12-04 12:00:00,2156-12-04 12:00:00,2156-11-29 06:00:00,975.78,-45.39,47.21,975.78,-45.39,47.21,983.91,-41.0,47.75,994.3,-37.75,43.25,985.73,-55.86,38.21
254,TC215702,Joshua,B,0,2157-06-17 12:00:00,,2157-06-16 18:00:00,2157-06-16 18:00:00,2157-06-14 12:00:00,984.51,-74.29,35.04,984.51,-74.29,35.04,987.73,-71.76,41.09,,,,1004.41,-80.45,31.87
255,TC215703,Kelly,B,0,2157-08-25 06:00:00,,2157-08-25 12:00:00,2157-08-25 00:00:00,2157-08-21 00:00:00,991.76,-46.8,39.28,1000.51,-52.09,39.3,994.47,-49.31,39.47,,,,1016.11,-61.46,37.76
256,TC215704,Luca,B,0,2157-09-04 00:00:00,,2157-09-01 12:00:00,2157-09-01 12:00:00,2157-08-29 06:00:00,977.26,-96.47,24.55,977.26,-96.47,24.55,1010.63,-95.8,29.2,,,,1006.36,-79.97,16.38
257,TC215705,Mary,B,-1,,,2157-09-14 06:00:00,2157-09-14 06:00:00,2157-09-13 06:00:00,997.3,-19.01,17.71,997.3,-19.01,17.71,,,,,,,1002.47,-15.05,17.03
258,TC215805,Blaise,B,3,2158-11-05 12:00:00,2158-11-05 12:00:00,2158-11-02 18:00:00,2158-11-02 18:00:00,2158-11-02 18:00:00,968.94,-73.16,36.71,968.94,-73.16,36.71,995.93,-67.25,38.25,995.93,-67.25,38.25,968.94,-73.16,36.71
259,TC215901,Frederick,B,0,2159-01-23 00:00:00,,2159-01-19 18:00:00,2159-01-19 18:00:00,2159-01-18 12:00:00,977.02,-34.03,34.75,977.02,-34.03,34.75,1007.89,-19.75,54.25,,,,993.49,-34.98,31.94
260,TC215902,Gwyneth,B,0,2159-02-05 00:00:00,,2159-02-03 18:00:00,2159-02-03 18:00:00,2159-02-01 06:00:00,960.12,-39.4,41.87,960.12,-39.4,41.87,965.28,-27.69,47.44,,,,994.46,-56.47,34.84
261,TC215903,Ian,B,-1,,,2159-02-11 06:00:00,2159-02-11 06:00:00,2159-02-10 06:00:00,953.75,-15.25,42.06,953.75,-15.25,42.06,,,,,,,977.08,-25.66,38.36
262,TC215904,Jessica,B,-1,,,2159-05-29 18:00:00,2159-05-29 18:00:00,2159-05-28 12:00:00,992.78,-52.24,37.97,992.78,-52.24,37.97,,,,,,,1006.46,-61.1,38.09
263,TC215905,Kyle,B,0,2159-08-19 00:00:00,,2159-08-20 06:00:00,2159-08-18 18:00:00,2159-08-16 12:00:00,940.47,-31.53,45.46,979.95,-50.06,40.6,973.13,-48.0,40.26,,,,997.37,-63.66,39.9
264,TC215906,Lorraine,B,-1,,,2159-08-27 00:00:00,2159-08-27 00:00:00,2159-08-18 06:00:00,991.86,-56.39,25.69,991.86,-56.39,25.69,,,,,,,1011.2,-25.94,10.39
265,TC215907,Manfred,B,1,2159-09-13 12:00:00,2159-09-14 00:00:00,2159-09-07 00:00:00,2159-09-07 00:00:00,2159-08-30 18:00:00,904.05,-53.8,20.78,904.05,-53.8,20.78,952.62,-50.48,45.84,956.15,-47.75,49.91,1010.19,-13.58,8.15
266,TC215908,Oxlip,B,0,2159-09-03 18:00:00,,2159-09-03 06:00:00,2159-09-03 06:00:00,2159-08-30 18:00:00,944.39,-49.53,36.53,944.39,-49.53,36.53,945.26,-46.25,37.88,,,,1010.2,-56.81,31.0
267,TC215909,Romeo,B,-1,,,2159-09-21 06:00:00,2159-09-21 06:00:00,2159-09-18 12:00:00,998.65,-44.89,13.51,998.65,-44.89,13.51,,,,,,,1010.33,-35.47,10.17
268,TC215910,Sofiee,B,0,2159-10-04 00:00:00,,2159-10-06 00:00:00,2159-10-03 18:00:00,2159-09-23 12:00:00,901.65,-54.68,30.75,920.56,-59.27,28.32,926.14,-59.06,28.42,,,,1007.46,-27.31,7.35
269,TC215911,Travis,B,0,2159-10-18 00:00:00,,2159-10-21 00:00:00,2159-10-17 18:00:00,2159-10-14 18:00:00,937.58,-65.24,32.19,967.7,-80.52,20.42,965.79,-79.62,21.78,,,,1007.15,-85.48,16.17
270,TC215912,Yan,B,2,2159-11-04 06:00:00,2159-11-04 12:00:00,2159-11-02 00:00:00,2159-11-02 00:00:00,2159-10-25 12:00:00,989.54,-82.96,19.14,989.54,-82.96,19.14,1001.43,-78.72,23.25,1003.53,-78.25,24.14,1008.65,-80.02,13.28
271,TC215914,Bernardo,B,0,2159-12-03 18:00:00,,2159-12-05 12:00:00,2159-11-29 06:00:00,2159-11-26 06:00:00,961.17,-11.96,42.88,974.66,-46.1,37.14,978.9,-34.3,36.67,,,,1006.38,-49.57,37.77
272,TC216001,Corliss,B,3,2160-04-27 18:00:00,2160-04-27 18:00:00,2160-04-25 06:00:00,2160-04-25 06:00:00,2160-04-19 06:00:00,932.34,-95.16,26.06,932.34,-95.16,26.06,991.33,-87.0,35.7,991.33,-87.0,35.7,1008.53,-95.99,25.11
273,TC216002,Derrick,B,0,2160-08-25 00:00:00,,2160-08-27 18:00:00,2160-08-24 18:00:00,2160-08-18 00:00:00,869.71,-86.14,22.0,930.14,-64.84,16.82,909.2,-66.94,16.82,,,,1005.8,-19.72,13.16
274,TC216003,Flavia,B,0,2160-09-21 06:00:00,,2160-09-21 12:00:00,2160-09-20 18:00:00,2160-09-09 12:00:00,937.28,-49.5,40.21,961.53,-51.62,37.02,943.07,-50.06,38.99,,,,1007.87,-23.32,10.64
275,TC216004,Gareth,B,0,2160-10-06 00:00:00,,2160-10-02 00:00:00,2160-10-02 00:00:00,2160-09-25 12:00:00,912.78,-66.6,23.39,912.78,-66.6,23.39,927.55,-75.09,33.55,,,,1007.44,-33.04,14.19
276,TC216005,Ivanka,B,-1,,,2160-10-04 06:00:00,2160-10-04 06:00:00,2160-09-30 18:00:00,990.1,-32.13,13.21,990.1,-32.13,13.21,,,,,,,1001.79,-13.54,7.52
277,TC216006,Justin,B,3,2160-10-22 00:00:00,2160-10-22 00:00:00,2160-10-12 06:00:00,2160-10-12 06:00:00,2160-10-06 18:00:00,941.98,-29.58,15.59,941.98,-29.58,15.59,1008.04,-41.75,42.25,1008.04,-41.75,42.25,1006.55,-21.33,6.53
278,TC216101,Kyan,B,3,2161-01-08 12:00:00,2161-01-08 12:00:00,2161-01-09 06:00:00,2161-01-07 18:00:00,2161-01-04 18:00:00,984.84,-57.0,54.0,987.82,-56.46,39.03,990.21,-54.41,45.39,990.21,-54.41,45.39,1009.79,-65.78,25.01
279,TC216102,Lionel,B,2,2161-03-19 12:00:00,2161-03-19 18:00:00,2161-03-14 18:00:00,2161-03-14 18:00:00,2161-03-14 18:00:00,990.36,-48.22,32.6,990.36,-48.22,32.6,1013.44,-30.56,32.01,1012.53,-30.05,31.74,990.36,-48.22,32.6
280,TC216105,Rachel,B,1,2161-09-28 12:00:00,2161-09-30 12:00:00,2161-09-28 12:00:00,2161-09-28 06:00:00,2161-09-12 00:00:00,902.08,-76.81,29.49,908.39,-77.72,28.14,902.08,-76.81,29.49,970.65,-60.52,46.98,1010.28,-22.62,15.69
281,TC216106,Savio,B,-1,,,2161-09-20 18:00:00,2161-09-20 18:00:00,2161-09-13 12:00:00,995.92,-87.86,25.28,995.92,-87.86,25.28,,,,,,,1012.24,-49.1,15.24
282,TC216107,Torie,B,3,2161-09-29 12:00:00,2161-09-29 12:00:00,2161-09-26 00:00:00,2161-09-26 00:00:00,2161-09-15 06:00:00,905.41,-58.22,30.8,905.41,-58.22,30.8,978.43,-52.02,49.58,978.43,-52.02,49.58,1005.54,-18.8,15.68
283,TC216108,Yoshi,B,0,2161-10-06 00:00:00,,2161-10-02 18:00:00,2161-10-02 18:00:00,2161-10-01 06:00:00,952.55,-20.27,15.45,952.55,-20.27,15.45,1010.31,-19.42,25.11,,,,996.86,-18.94,12.77
284,TC216110,Brenda,B,0,2161-11-16 00:00:00,,2161-11-16 12:00:00,2161-11-15 18:00:00,2161-11-13 06:00:00,958.96,-40.56,50.43,966.84,-48.75,40.24,966.91,-45.81,44.04,,,,1002.43,-61.18,23.84
285,TC216112,Doris,B,-1,,,2161-12-21 12:00:00,2161-12-21 12:00:00,2161-12-18 06:00:00,975.43,-41.45,39.86,975.43,-41.45,39.86,,,,,,,998.06,-42.38,26.77
286,TC216202,Gianna,C,1,2162-04-09 06:00:00,2162-04-10 00:00:00,2162-04-08 06:00:00,2162-04-08 06:00:00,2162-04-06 00:00:00,986.84,-68.14,37.83,986.84,-68.14,37.83,988.15,-59.35,40.37,993.46,-53.75,42.75,1000.22,-80.9,33.51
287,TC216204,Jaime,C,1,2162-06-20 00:00:00,2162-06-22 00:00:00,2162-06-18 06:00:00,2162-06-18 06:00:00,2162-06-12 06:00:00,974.95,-89.29,29.78,974.95,-89.29,29.78,992.49,-84.38,36.3,998.45,-64.72,40.48,1008.05,-82.3,16.98
288,TC216207,Micah,C,0,2162-10-01 00:00:00,,2162-09-27 06:00:00,2162-09-27 06:00:00,2162-09-17 18:00:00,992.66,-59.06,20.42,992.66,-59.06,20.42,1015.64,-69.75,24.75,,,,1011.11,-20.6,13.56
289,TC216208,Olivia,C,2,2162-11-05 12:00:00,2162-11-05 18:00:00,2162-11-02 06:00:00,2162-11-02 06:00:00,2162-11-01 18:00:00,998.18,-40.96,41.91,998.18,-40.96,41.91,1012.35,-33.4,30.84,1010.74,-33.03,29.88,1000.04,-43.09,41.91
290,TC216209,Ruben,C,1,2162-11-13 18:00:00,2162-11-15 00:00:00,2162-11-13 06:00:00,2162-11-13 06:00:00,2162-11-10 12:00:00,988.75,-50.6,36.59,988.75,-50.6,36.59,991.31,-47.91,38.92,998.71,-27.25,46.0,1013.03,-46.34,26.84
291,TC216301,Seldoen,C,3,2163-03-23 00:00:00,2163-03-23 00:00:00,2163-03-19 06:00:00,2163-03-19 06:00:00,2163-03-19 06:00:00,986.21,-64.24,32.98,986.21,-64.24,32.98,1007.17,-55.5,31.75,1007.17,-55.5,31.75,986.21,-64.24,32.98
292,TC216303,Zoe,C,1,2163-09-04 00:00:00,2163-09-06 18:00:00,2163-09-04 00:00:00,2163-09-03 12:00:00,2163-08-24 18:00:00,907.51,-65.89,32.08,913.12,-67.65,29.01,907.51,-65.89,32.08,978.2,-47.97,49.09,1006.27,-29.08,12.81
293,TC216304,Alice,C,2,2163-08-29 18:00:00,2163-08-30 06:00:00,2163-08-27 18:00:00,2163-08-27 18:00:00,2163-08-26 06:00:00,999.96,-25.61,9.97,999.96,-25.61,9.97,1007.95,-34.53,18.3,1012.04,-36.66,19.85,1002.21,-16.68,11.34
294,TC216402,Dylan,C,-1,,,2164-03-19 18:00:00,2164-03-19 18:00:00,2164-03-17 18:00:00,968.07,-22.73,35.98,968.07,-22.73,35.98,,,,,,,991.35,-37.34,31.39
295,TC216404,Giovanni,C,1,2164-05-24 00:00:00,2164-05-25 00:00:00,2164-05-24 12:00:00,2164-05-23 18:00:00,2164-05-20 12:00:00,991.73,-70.04,41.13,998.62,-73.51,36.23,996.85,-72.24,37.55,1004.13,-67.03,44.79,1012.39,-76.37,31.23
296,TC216405,Ivy,C,1,2164-08-29 18:00:00,2164-08-30 00:00:00,2164-08-27 18:00:00,2164-08-27 18:00:00,2164-08-21 18:00:00,972.18,-85.34,29.29,972.18,-85.34,29.29,1003.79,-78.76,39.11,1001.09,-77.29,39.85,1002.88,-57.58,14.84
297,TC216406,Jack,C,0,2164-09-13 00:00:00,,2164-09-09 06:00:00,2164-09-09 06:00:00,2164-08-31 12:00:00,942.61,-51.35,30.06,942.61,-51.35,30.06,967.35,-40.73,45.27,,,,1009.74,-28.23,16.33
298,TC216407,Kiley,C,2,2164-10-06 12:00:00,2164-10-07 00:00:00,2164-10-05 00:00:00,2164-10-05 00:00:00,2164-10-02 06:00:00,986.99,-58.03,42.86,986.99,-58.03,42.86,1001.36,-56.89,42.84,1005.24,-54.25,44.0,1007.83,-64.97,25.23
299,TC216502,Ollie,C,0,2165-03-17 06:00:00,,2165-03-14 06:00:00,2165-03-14 06:00:00,2165-03-10 12:00:00,972.44,-45.38,38.16,972.44,-45.38,38.16,981.02,-40.08,30.3,,,,1007.05,-86.05,26.65
300,TC216504,Sergio,C,1,2165-05-15 06:00:00,2165-05-16 06:00:00,2165-05-14 00:00:00,2165-05-14 00:00:00,2165-05-11 00:00:00,981.08,-87.45,30.01,981.08,-87.45,30.01,993.74,-87.15,32.37,989.98,-77.75,39.81,1000.67,-86.44,26.58
301,TC216505,Tess,C,1,2165-09-12 12:00:00,2165-09-13 12:00:00,2165-09-07 18:00:00,2165-09-07 18:00:00,2165-08-31 18:00:00,970.92,-80.25,24.75,970.92,-80.25,24.75,994.16,-52.92,43.09,1009.05,-41.25,47.0,1013.28,-45.28,16.63
302,TC216506,Zack,C,-1,,,2165-09-21 00:00:00,2165-09-21 00:00:00,2165-09-18 18:00:00,990.64,-93.16,23.78,990.64,-93.16,23.78,,,,,,,1012.74,-86.75,24.6
303,TC216507,Alex,C,-1,,,2165-09-28 12:00:00,2165-09-28 12:00:00,2165-09-23 12:00:00,968.31,-29.89,14.14,968.31,-29.89,14.14,,,,,,,1009.86,-12.95,7.62
304,TC216508,Beatrice,C,0,2165-10-08 00:00:00,,2165-10-08 18:00:00,2165-10-07 12:00:00,2165-10-04 18:00:00,976.51,-60.03,43.51,985.2,-58.34,33.95,987.5,-60.25,37.37,,,,1009.91,-54.55,24.88
305,TC216601,Ernest,C,0,2166-04-01 18:00:00,,2166-03-26 18:00:00,2166-03-26 18:00:00,2166-03-23 18:00:00,960.86,-57.52,40.05,960.86,-57.52,40.05,975.19,-28.98,45.29,,,,1009.91,-85.87,27.09
306,TC216603,Harrison,C,0,2166-09-15 00:00:00,,2166-09-09 06:00:00,2166-09-09 06:00:00,2166-09-03 18:00:00,999.23,-45.85,15.55,999.23,-45.85,15.55,1016.69,-64.0,26.75,,,,1008.46,-14.35,10.21
307,TC216605,Kinen,C,3,2166-10-28 18:00:00,2166-10-28 18:00:00,2166-10-27 00:00:00,2166-10-27 00:00:00,2166-10-21 18:00:00,979.31,-31.26,43.13,979.31,-31.26,43.13,991.2,-13.85,38.82,991.2,-13.85,38.82,1010.19,-47.36,30.39
308,TC216606,Lydia,C,1,2166-11-05 12:00:00,2166-11-06 06:00:00,2166-10-29 18:00:00,2166-10-29 18:00:00,2166-10-26 12:00:00,940.03,-59.35,40.37,940.03,-59.35,40.37,997.23,-29.08,40.34,1007.39,-22.5,41.75,992.2,-63.59,34.86
309,TC216607,Mario,C,1,2166-11-27 12:00:00,2166-11-27 18:00:00,2166-11-25 06:00:00,2166-11-25 06:00:00,2166-11-19 00:00:00,964.9,-64.82,30.64,964.9,-64.82,30.64,998.32,-56.24,37.67,1000.25,-53.75,38.75,1008.55,-77.39,29.68
310,TC216608,Nicole,C,0,2166-12-05 12:00:00,,2166-12-03 18:00:00,2166-12-03 18:00:00,2166-12-02 00:00:00,975.41,-63.99,37.31,975.41,-63.99,37.31,992.1,-61.57,48.05,,,,994.1,-69.46,29.73
311,TC216701,Phil,C,1,2167-03-12 12:00:00,2167-03-12 18:00:00,2167-03-14 00:00:00,2167-03-10 06:00:00,2167-03-03 12:00:00,967.56,-15.25,51.0,967.64,-47.62,38.44,974.27,-37.41,44.17,972.5,-33.84,44.1,1004.55,-91.79,29.26
312,TC216703,Tony,C,1,2167-06-10 00:00:00,2167-06-10 06:00:00,2167-06-09 18:00:00,2167-06-09 18:00:00,2167-06-06 18:00:00,992.3,-65.18,38.75,992.3,-65.18,38.75,996.19,-61.55,40.01,997.93,-58.67,41.51,1011.56,-84.09,31.04
313,TC216704,Victoria,C,0,2167-09-29 18:00:00,,2167-09-26 00:00:00,2167-09-26 00:00:00,2167-09-20 00:00:00,947.29,-66.33,34.94,947.29,-66.33,34.94,966.91,-38.72,41.7,,,,1006.0,-67.29,21.21
314,TC216706,Brandon,C,1,2167-11-01 00:00:00,2167-11-01 18:00:00,2167-11-01 00:00:00,2167-10-31 18:00:00,2167-10-26 06:00:00,915.69,-49.62,41.55,916.91,-51.52,38.47,915.69,-49.62,41.55,945.33,-55.81,50.29,1010.58,-63.33,23.29
315,TC216707,Christine,C,-1,,,2167-11-07 18:00:00,2167-11-07 18:00:00,2167-11-04 18:00:00,984.58,-84.51,19.02,984.58,-84.51,19.02,,,,,,,1010.11,-78.15,12.2
316,TC216802,Elyse,C,-1,,,2168-03-21 06:00:00,2168-03-21 06:00:00,2168-03-20 06:00:00,990.83,-33.88,38.01,990.83,-33.88,38.01,,,,,,,995.09,-33.8,37.31
317,TC216803,Geoffrey,C,1,2168-04-26 00:00:00,2168-04-26 06:00:00,2168-04-26 06:00:00,2168-04-25 18:00:00,2168-04-22 06:00:00,983.3,-49.95,42.02,988.78,-55.43,36.09,987.07,-52.92,38.54,983.3,-49.95,42.02,1008.73,-72.6,24.07
318,TC216805,Jacob,C,1,2168-09-14 06:00:00,2168-09-15 12:00:00,2168-09-11 06:00:00,2168-09-11 06:00:00,2168-09-03 12:00:00,930.44,-55.23,26.02,930.44,-55.23,26.02,955.49,-54.33,40.94,994.97,-39.69,49.13,1008.61,-32.3,13.71
319,TC216806,Katrina,C,1,2168-09-27 06:00:00,2168-09-27 12:00:00,2168-09-26 12:00:00,2168-09-26 12:00:00,2168-09-14 18:00:00,995.9,-80.21,31.08,995.9,-80.21,31.08,1008.23,-79.32,34.71,1012.58,-79.43,35.35,1008.97,-17.03,10.65
320,TC216807,Luke,C,0,2168-10-03 00:00:00,,2168-10-04 12:00:00,2168-10-01 12:00:00,2168-09-23 06:00:00,941.3,-49.74,39.68,953.43,-59.68,26.37,960.54,-58.57,33.21,,,,997.26,-30.09,7.77
321,TC216808,Maho,C,-1,,,2168-11-25 18:00:00,2168-11-25 18:00:00,2168-11-23 18:00:00,994.83,-65.53,39.86,994.83,-65.53,39.86,,,,,,,997.0,-65.87,33.39
322,TC216902,Peach,C,0,2169-09-24 18:00:00,,2169-09-24 18:00:00,2169-09-24 06:00:00,2169-09-15 06:00:00,931.98,-58.48,35.6,936.58,-58.45,31.55,931.98,-58.48,35.6,,,,1007.25,-17.15,16.0
323,TC216903,Samson,C,0,2169-10-14 12:00:00,,2169-10-11 18:00:00,2169-10-11 18:00:00,2169-10-07 12:00:00,988.47,-84.08,26.68,988.47,-84.08,26.68,1010.72,-87.1,31.83,,,,1011.66,-81.72,28.63
324,TC217001,Victor,C,0,2170-01-24 12:00:00,,2170-01-19 06:00:00,2170-01-19 06:00:00,2170-01-17 18:00:00,981.44,-13.62,34.83,981.44,-13.62,34.83,1010.78,-13.75,52.5,,,,989.14,-16.94,27.67
325,TC217002,Andy,C,2,2170-01-28 12:00:00,2170-01-28 18:00:00,2170-01-26 06:00:00,2170-01-26 06:00:00,2170-01-25 12:00:00,981.99,-32.44,38.0,981.99,-32.44,38.0,999.42,-28.16,45.2,1000.85,-26.84,47.33,984.98,-31.96,35.06
326,TC217004,Charlie,C,1,2170-06-01 00:00:00,2170-06-02 00:00:00,2170-05-31 06:00:00,2170-05-31 06:00:00,2170-05-29 00:00:00,999.21,-77.02,35.38,999.21,-77.02,35.38,1001.66,-74.31,38.59,1005.39,-72.0,42.0,1007.86,-80.31,28.88
327,TC217005,Dorcas,C,0,2170-10-23 12:00:00,,2170-10-24 06:00:00,2170-10-23 06:00:00,2170-10-19 12:00:00,959.67,-59.3,46.6,988.24,-61.33,36.62,982.38,-61.1,38.09,,,,1002.21,-52.04,27.49
328,TC217006,Erik,C,-1,,,2170-12-01 06:00:00,2170-12-01 06:00:00,2170-11-29 12:00:00,993.37,-32.77,37.74,993.37,-32.77,37.74,,,,,,,997.56,-34.46,33.5
329,TC217103,Josie,C,-1,,,2171-02-17 00:00:00,2171-02-17 00:00:00,2171-02-16 06:00:00,933.42,-49.63,43.14,933.42,-49.63,43.14,,,,,,,969.53,-57.71,35.33
330,TC217104,Keith,C,-1,,,2171-04-02 06:00:00,2171-04-02 06:00:00,2171-03-30 12:00:00,969.12,-35.95,41.9,969.12,-35.95,41.9,,,,,,,984.64,-65.23,36.93
331,TC217106,Marco,C,1,2171-10-04 18:00:00,2171-10-05 12:00:00,2171-10-03 18:00:00,2171-10-03 18:00:00,2171-09-20 06:00:00,940.03,-77.4,31.94,940.03,-77.4,31.94,954.84,-72.83,37.87,972.71,-64.21,44.31,1008.88,-30.16,10.9
332,TC217108,Quinn,C,0,2171-11-04 00:00:00,,2171-11-03 06:00:00,2171-11-03 06:00:00,2171-11-01 00:00:00,991.49,-64.8,39.58,991.49,-64.8,39.58,995.07,-62.01,39.45,,,,1006.32,-73.59,28.91
333,TC217111,Winnie,C,1,2171-12-07 06:00:00,2171-12-07 18:00:00,2171-12-12 00:00:00,2171-12-07 00:00:00,2171-12-05 06:00:00,975.59,-44.12,40.87,1003.77,-64.7,23.33,1002.8,-64.1,23.38,1006.46,-62.58,23.07,1008.9,-65.41,24.25
334,TC217202,Bryan,C,3,2172-08-29 18:00:00,2172-08-29 18:00:00,2172-08-26 06:00:00,2172-08-26 06:00:00,2172-08-18 12:00:00,901.66,-82.04,24.53,901.66,-82.04,24.53,990.55,-81.67,34.65,990.55,-81.67,34.65,1008.65,-40.4,15.06
335,TC217203,Cissy,C,1,2172-09-06 18:00:00,2172-09-10 00:00:00,2172-09-04 12:00:00,2172-09-04 12:00:00,2172-08-25 18:00:00,901.92,-88.97,28.01,901.92,-88.97,28.01,996.73,-91.41,34.53,985.29,-74.75,45.0,1008.1,-30.75,16.11
336,TC217204,Dominic,C,1,2172-09-13 12:00:00,2172-09-14 18:00:00,2172-09-11 00:00:00,2172-09-11 00:00:00,2172-09-02 12:00:00,959.77,-68.56,27.56,959.77,-68.56,27.56,970.16,-61.12,40.45,994.62,-40.63,46.44,1008.82,-25.89,10.42
337,TC217205,Esther,C,-1,,,2172-09-27 00:00:00,2172-09-27 00:00:00,2172-09-22 12:00:00,962.57,-32.37,20.87,962.57,-32.37,20.87,,,,,,,1007.58,-27.07,9.25
338,TC217206,Gabriel,C,3,2172-10-29 06:00:00,2172-10-29 06:00:00,2172-10-27 12:00:00,2172-10-27 12:00:00,2172-10-22 12:00:00,924.53,-51.87,38.11,924.53,-51.87,38.11,971.0,-55.94,47.8,971.0,-55.94,47.8,1011.05,-58.7,35.26
339,TC217402,Lomy,C,1,2174-10-21 06:00:00,2174-10-21 12:00:00,2174-10-11 00:00:00,2174-10-11 00:00:00,2174-10-01 12:00:00,937.26,-48.06,30.59,937.26,-48.06,30.59,985.13,-39.2,44.53,987.98,-39.96,45.84,1009.39,-55.81,18.39
340,TC217403,Mandy,C,1,2174-10-22 00:00:00,2174-10-24 00:00:00,2174-10-22 12:00:00,2174-10-17 18:00:00,2174-10-16 12:00:00,993.26,-79.79,26.31,998.43,-87.29,22.88,994.4,-82.33,24.55,1002.14,-74.75,27.75,1004.6,-89.9,21.6
341,TC217505,Bella,C,0,2175-09-03 18:00:00,,2175-08-30 00:00:00,2175-08-30 00:00:00,2175-08-25 00:00:00,927.66,-52.01,22.47,927.66,-52.01,22.47,936.84,-51.43,39.9,,,,1007.94,-17.94,11.02
342,TC217506,Carson,C,2,2175-09-15 06:00:00,2175-09-15 12:00:00,2175-09-12 18:00:00,2175-09-12 18:00:00,2175-08-28 12:00:00,953.56,-44.4,38.25,953.56,-44.4,38.25,994.72,-30.97,49.62,998.93,-27.17,50.76,1004.95,-14.78,15.39
343,TC217509,Greta,C,1,2175-10-14 12:00:00,2175-10-17 18:00:00,2175-10-18 12:00:00,2175-10-14 06:00:00,2175-10-09 00:00:00,963.39,-36.51,49.13,982.44,-76.02,31.0,986.86,-75.74,31.88,978.28,-48.45,39.32,1008.19,-80.26,12.38
344,TC217510,Hendrik,C,0,2175-12-06 06:00:00,,2175-12-02 18:00:00,2175-12-02 18:00:00,2175-11-30 00:00:00,974.43,-48.47,43.5,974.43,-48.47,43.5,993.87,-32.5,50.5,,,,1011.13,-68.3,33.31
345,TC217602,Kevin,C,0,2176-10-10 12:00:00,,2176-10-09 18:00:00,2176-10-09 18:00:00,2176-10-02 12:00:00,936.45,-57.72,36.8,936.45,-57.72,36.8,952.95,-55.56,44.62,,,,1015.81,-54.88,30.19
346,TC217803,Shirley,C,1,2178-07-08 12:00:00,2178-07-08 18:00:00,2178-07-06 12:00:00,2178-07-06 12:00:00,2178-06-25 06:00:00,957.08,-84.66,29.16,957.08,-84.66,29.16,1006.99,-85.45,37.04,1008.85,-84.98,37.91,1012.17,-25.56,7.42
347,TC217805,Wendy,C,3,2178-11-02 06:00:00,2178-11-02 06:00:00,2178-10-30 18:00:00,2178-10-30 18:00:00,2178-10-27 12:00:00,996.96,-58.67,34.42,996.96,-58.67,34.42,1008.74,-57.75,36.75,1008.74,-57.75,36.75,1006.09,-65.42,36.46
348,TC217807,Benjamin,C,1,2178-12-14 18:00:00,2178-12-15 06:00:00,2178-12-15 06:00:00,2178-12-14 12:00:00,2178-12-12 06:00:00,989.06,-40.2,50.69,990.96,-50.03,44.83,989.25,-47.05,47.01,989.06,-40.2,50.69,996.89,-60.26,33.02
349,TC217901,Daniel,C,1,2179-01-13 12:00:00,2179-01-14 00:00:00,2179-01-17 18:00:00,2179-01-09 18:00:00,2179-01-09 06:00:00,944.26,-20.43,48.03,989.04,-50.78,36.88,994.08,-42.17,32.16,994.62,-38.61,31.2,989.76,-49.98,40.05
350,TC217904,Hazel,C,1,2179-07-05 06:00:00,2179-07-05 18:00:00,2179-07-03 12:00:00,2179-07-03 12:00:00,2179-06-26 00:00:00,965.55,-68.83,38.61,965.55,-68.83,38.61,981.05,-54.52,43.71,981.04,-46.58,46.36,1016.88,-80.99,28.95
351,TC217905,Joshua,C,-1,,,2179-08-11 18:00:00,2179-08-11 18:00:00,2179-08-07 00:00:00,928.09,-87.94,18.52,928.09,-87.94,18.52,,,,,,,1012.2,-45.61,13.77
352,TC218001,Kelly,C,1,2180-08-27 18:00:00,2180-09-01 18:00:00,2180-08-27 18:00:00,2180-08-27 12:00:00,2180-08-21 12:00:00,941.46,-54.18,35.78,962.81,-55.24,34.72,941.46,-54.18,35.78,978.76,-17.96,44.38,1007.0,-34.42,15.2
353,TC218002,Luca,C,0,2180-10-04 06:00:00,,2180-09-17 18:00:00,2180-09-17 18:00:00,2180-09-09 06:00:00,924.63,-50.52,28.16,924.63,-50.52,28.16,1013.29,-19.75,52.25,,,,1005.53,-15.8,15.71
354,TC218103,Rosalina,C,2,2181-05-22 06:00:00,2181-05-22 12:00:00,2181-05-16 06:00:00,2181-05-16 06:00:00,2181-05-13 00:00:00,955.89,-88.0,29.5,955.89,-88.0,29.5,1002.55,-63.87,39.79,1003.53,-62.75,41.5,1004.48,-97.26,25.28
355,TC218104,Skyler,C,1,2181-06-11 18:00:00,2181-06-13 00:00:00,2181-06-12 00:00:00,2181-06-11 12:00:00,2181-06-08 06:00:00,985.13,-69.63,38.83,988.12,-69.45,36.16,986.75,-69.41,37.36,1007.8,-73.04,43.47,1008.51,-77.04,32.19
356,TC218108,Blaise,C,0,2181-10-24 00:00:00,,2181-10-24 12:00:00,2181-10-23 18:00:00,2181-10-20 18:00:00,914.41,-54.62,36.43,922.35,-58.9,33.68,916.65,-57.91,34.14,,,,998.28,-55.29,30.85
357,TC218201,Daisy,C,1,2182-06-10 00:00:00,2182-06-10 06:00:00,2182-06-08 12:00:00,2182-06-08 12:00:00,2182-05-27 18:00:00,969.1,-63.6,38.15,969.1,-63.6,38.15,973.21,-55.85,45.35,976.52,-56.54,47.14,1006.57,-78.8,6.44
358,TC218202,Frederick,C,0,2182-06-09 00:00:00,,2182-06-05 18:00:00,2182-06-05 18:00:00,2182-06-02 18:00:00,998.06,-54.35,24.98,998.06,-54.35,24.98,1010.3,-46.0,33.0,,,,1004.29,-65.9,17.68
359,TC218204,Ian,C,1,2182-08-31 06:00:00,2182-08-31 12:00:00,2182-08-28 12:00:00,2182-08-28 12:00:00,2182-08-21 18:00:00,987.68,-80.48,29.89,987.68,-80.48,29.89,997.29,-70.61,44.82,1000.38,-67.26,46.49,1010.39,-43.64,14.9
360,TC218205,Jessica,C,1,2182-09-12 06:00:00,2182-09-12 18:00:00,2182-09-10 18:00:00,2182-09-10 18:00:00,2182-09-01 06:00:00,941.75,-79.85,29.14,941.75,-79.85,29.14,1000.61,-84.12,35.75,1004.03,-81.36,38.68,1011.73,-29.6,11.9
361,TC218206,Kyle,C,1,2182-09-19 06:00:00,2182-09-20 18:00:00,2182-09-18 12:00:00,2182-09-18 12:00:00,2182-09-10 00:00:00,955.79,-66.37,32.71,955.79,-66.37,32.71,979.64,-66.49,37.16,996.94,-53.5,45.7,1008.69,-34.21,10.95
362,TC218304,Romeo,C,2,2183-09-04 18:00:00,2183-09-05 12:00:00,2183-09-02 00:00:00,2183-09-02 00:00:00,2183-08-28 18:00:00,991.09,-87.82,30.41,991.09,-87.82,30.41,1007.65,-94.76,42.3,1002.63,-86.56,47.49,1002.12,-72.46,23.51
363,TC218306,Travis,C,1,2183-09-25 00:00:00,2183-09-29 00:00:00,2183-09-26 12:00:00,2183-09-24 18:00:00,2183-09-22 00:00:00,944.56,-57.61,37.7,991.69,-65.9,34.77,982.1,-65.53,35.62,970.35,-20.5,52.25,1010.03,-68.23,30.28
364,TC218307,Yan,C,2,2183-11-08 00:00:00,2183-11-08 06:00:00,2183-11-01 12:00:00,2183-11-01 12:00:00,2183-10-28 00:00:00,956.58,-65.06,37.66,956.58,-65.06,37.66,1002.8,-34.02,45.09,1000.15,-33.37,47.6,1003.89,-70.35,28.26
365,TC218403,Corliss,C,0,2184-09-30 00:00:00,,2184-10-02 06:00:00,2184-09-29 18:00:00,2184-09-22 12:00:00,927.62,-51.23,39.16,972.27,-62.67,29.4,974.86,-60.12,29.62,,,,1004.23,-18.41,12.78
366,TC218405,Flavia,C,2,2184-11-20 18:00:00,2184-11-21 06:00:00,2184-11-15 00:00:00,2184-11-15 00:00:00,2184-11-13 00:00:00,940.58,-32.29,41.37,940.58,-32.29,41.37,1005.85,-8.5,37.75,1012.11,-9.25,36.75,977.67,-48.01,30.02
367,TC218406,Gareth,C,-1,,,2184-12-20 06:00:00,2184-12-20 06:00:00,2184-12-15 12:00:00,951.77,-35.77,39.96,951.77,-35.77,39.96,,,,,,,999.85,-74.27,36.62
368,TC218502,Justin,C,0,2185-01-24 06:00:00,,2185-01-24 12:00:00,2185-01-24 00:00:00,2185-01-22 06:00:00,996.27,-32.56,44.31,997.78,-38.96,40.16,997.02,-35.76,42.24,,,,1004.69,-33.6,32.67
369,TC218505,Melody,C,0,2185-10-08 06:00:00,,2185-10-05 12:00:00,2185-10-05 12:00:00,2185-10-04 18:00:00,991.74,-90.07,23.89,991.74,-90.07,23.89,1006.82,-82.75,32.75,,,,997.06,-92.58,21.92
370,TC218506,Oscar,C,2,2185-10-30 06:00:00,2185-10-30 18:00:00,2185-10-29 06:00:00,2185-10-29 06:00:00,2185-10-25 12:00:00,959.89,-85.37,28.82,959.89,-85.37,28.82,1005.31,-85.33,32.94,1006.01,-82.79,36.09,1007.3,-89.14,22.12
371,TC218602,Torie,C,2,2186-08-17 12:00:00,2186-08-18 00:00:00,2186-08-15 06:00:00,2186-08-15 06:00:00,2186-08-06 12:00:00,911.61,-87.08,27.0,911.61,-87.08,27.0,998.55,-90.24,35.99,1000.29,-87.91,37.85,1007.4,-34.54,15.31
372,TC218603,Yoshi,C,-1,,,2186-08-07 06:00:00,2186-08-07 06:00:00,2186-08-06 18:00:00,998.76,-16.06,13.01,998.76,-16.06,13.01,,,,,,,1004.75,-14.32,11.83
373,TC218604,Angelo,C,0,2186-09-18 12:00:00,,2186-09-12 06:00:00,2186-09-12 06:00:00,2186-09-05 12:00:00,940.7,-58.64,30.36,940.7,-58.64,30.36,955.05,-50.39,41.52,,,,1010.22,-35.16,14.09
374,TC218605,Brenda,C,0,2186-10-26 18:00:00,,2186-10-27 12:00:00,2186-10-26 12:00:00,2186-10-23 18:00:00,963.96,-31.9,48.54,995.39,-42.39,36.96,988.21,-40.34,38.85,,,,1012.24,-42.5,37.3
375,TC218606,Cole,C,2,2187-01-02 18:00:00,2187-01-03 00:00:00,2186-12-30 18:00:00,2186-12-30 18:00:00,2186-12-31 00:00:00,994.19,-49.3,32.78,994.19,-49.3,32.78,1000.74,-46.03,32.17,1001.63,-45.19,31.49,995.78,-47.91,33.31
376,TC218701,Doris,C,0,2187-05-31 06:00:00,,2187-05-28 12:00:00,2187-05-28 12:00:00,2187-05-27 00:00:00,988.23,-57.76,39.34,988.23,-57.76,39.34,997.77,-52.5,45.75,,,,1003.44,-60.83,32.5
377,TC218703,Gianna,C,-1,,,2187-09-27 18:00:00,2187-09-27 18:00:00,2187-09-23 06:00:00,991.83,-40.2,47.58,991.83,-40.2,47.58,,,,,,,1007.08,-68.14,38.74
378,TC218704,Inaki,C,-1,,,2187-10-09 00:00:00,2187-10-09 00:00:00,2187-10-03 18:00:00,967.92,-44.18,43.7,967.92,-44.18,43.7,,,,,,,1012.72,-58.0,27.85
379,TC218705,Jaime,C,1,2187-11-11 12:00:00,2187-11-12 06:00:00,2187-11-11 00:00:00,2187-11-11 00:00:00,2187-11-06 06:00:00,945.32,-61.25,36.9,945.32,-61.25,36.9,954.19,-56.49,41.55,982.83,-42.47,47.53,1009.21,-63.84,26.1
380,TC218801,Kelechi,C,1,2188-03-03 12:00:00,2188-03-05 18:00:00,2188-03-05 00:00:00,2188-03-03 06:00:00,2188-03-01 18:00:00,962.04,-26.54,47.35,992.4,-35.43,36.4,991.15,-34.42,38.61,970.72,-26.91,51.62,997.39,-45.35,33.21
381,TC218803,Micah,C,0,2188-07-29 00:00:00,,2188-07-27 06:00:00,2188-07-27 06:00:00,2188-07-25 00:00:00,991.57,-87.61,29.57,991.57,-87.61,29.57,1005.17,-92.09,32.4,,,,1016.31,-80.85,31.64
382,TC218804,Olivia,C,1,2188-10-15 00:00:00,2188-10-16 00:00:00,2188-10-16 12:00:00,2188-10-11 12:00:00,2188-10-07 18:00:00,994.36,-50.99,46.92,995.51,-66.34,36.98,1001.19,-65.9,39.02,1001.66,-59.1,44.13,1014.96,-71.18,37.25
383,TC218805,Ruben,C,3,2188-11-08 12:00:00,2188-11-08 12:00:00,2188-11-15 18:00:00,2188-11-07 06:00:00,2188-11-05 18:00:00,956.72,-30.1,40.36,999.92,-68.43,34.0,1002.16,-67.33,31.66,1002.16,-67.33,31.66,1007.63,-68.55,31.19
384,TC218901,Toby,C,0,2189-02-18 06:00:00,,2189-02-17 00:00:00,2189-02-17 00:00:00,2189-02-13 00:00:00,967.35,-29.26,44.1,967.35,-29.26,44.1,970.56,-12.96,50.46,,,,1000.62,-48.5,34.19
385,TC218905,Candy,C,0,2189-05-16 18:00:00,,2189-05-15 06:00:00,2189-05-15 06:00:00,2189-05-13 18:00:00,990.92,-60.59,39.19,990.92,-60.59,39.19,999.15,-58.18,43.64,,,,995.76,-64.01,38.01
386,TC218906,Dylan,C,-1,,,2189-08-09 06:00:00,2189-08-09 06:00:00,2189-08-06 18:00:00,999.57,-23.22,15.06,999.57,-23.22,15.06,,,,,,,1007.95,-14.03,9.44
387,TC218908,Giovanni,C,2,2189-11-14 18:00:00,2189-11-15 00:00:00,2189-11-09 18:00:00,2189-11-09 18:00:00,2189-11-05 00:00:00,949.31,-45.24,39.2,949.31,-45.24,39.2,975.29,-22.25,53.5,975.02,-25.25,56.0,1007.98,-74.11,28.08
388,TC218909,Ivy,C,0,2189-12-12 12:00:00,,2189-12-02 06:00:00,2189-12-02 06:00:00,2189-11-28 00:00:00,928.07,-38.32,32.06,928.07,-38.32,32.06,934.78,-36.41,29.19,,,,1011.12,-38.51,25.61
389,TC219001,Jack,C,2,2190-02-14 06:00:00,2190-02-14 18:00:00,2190-02-13 06:00:00,2190-02-13 06:00:00,2190-02-11 12:00:00,979.77,-32.91,35.03,979.77,-32.91,35.03,986.02,-31.87,31.67,990.2,-26.99,30.76,987.29,-37.82,35.77
390,TC219002,Kiley,C,1,2190-09-03 12:00:00,2190-09-06 00:00:00,2190-09-04 18:00:00,2190-09-01 18:00:00,2190-08-25 12:00:00,935.09,-60.45,39.01,943.75,-68.79,26.52,942.4,-70.89,33.19,939.94,-42.18,50.54,1011.57,-29.72,16.73
391,TC219003,Luigi,C,0,2190-09-04 00:00:00,,2190-08-31 00:00:00,2190-08-31 00:00:00,2190-08-29 12:00:00,994.3,-20.47,19.83,994.3,-20.47,19.83,1015.07,-28.75,29.25,,,,1002.86,-16.03,15.82
392,TC219004,Michelle,C,0,2190-09-16 00:00:00,,2190-09-10 18:00:00,2190-09-10 18:00:00,2190-09-07 12:00:00,996.84,-38.75,22.6,996.84,-38.75,22.6,1002.06,-35.82,41.71,,,,1004.23,-25.22,13.94
393,TC219005,Ollie,C,1,2190-09-30 06:00:00,2190-10-01 00:00:00,2190-09-19 06:00:00,2190-09-19 06:00:00,2190-09-10 06:00:00,923.97,-52.9,27.34,923.97,-52.9,27.34,1003.13,-29.92,43.14,1004.07,-26.48,41.59,1003.95,-12.82,9.46
394,TC219006,Rosita,C,0,2190-10-06 00:00:00,,2190-10-02 06:00:00,2190-10-02 06:00:00,2190-09-26 06:00:00,994.39,-39.5,22.88,994.39,-39.5,22.88,1007.55,-47.0,28.75,,,,1003.19,-15.71,16.42
395,TC219007,Sergio,C,1,2190-11-17 12:00:00,2190-11-20 12:00:00,2190-11-13 12:00:00,2190-11-13 12:00:00,2190-11-04 00:00:00,900.04,-85.66,19.61,900.04,-85.66,19.61,920.27,-80.08,21.68,981.25,-49.3,41.08,1008.27,-78.43,15.54
396,TC219008,Tess,C,1,2190-11-17 06:00:00,2190-11-18 12:00:00,2190-11-13 06:00:00,2190-11-13 06:00:00,2190-11-06 18:00:00,945.86,-57.77,33.12,945.86,-57.77,33.12,978.43,-56.9,37.77,967.2,-29.04,51.12,1005.86,-65.42,19.69
397,TC219102,Alex,C,1,2191-09-09 12:00:00,2191-09-11 00:00:00,2191-09-09 18:00:00,2191-09-09 06:00:00,2191-08-28 12:00:00,920.35,-56.99,42.19,928.44,-61.1,38.09,926.25,-59.21,40.19,984.72,-40.68,50.61,1006.19,-26.35,13.81
398,TC219103,Beatrice,C,1,2191-09-14 00:00:00,2191-09-16 12:00:00,2191-09-14 06:00:00,2191-09-13 18:00:00,2191-09-08 12:00:00,953.21,-58.58,34.69,962.29,-60.39,31.46,964.1,-59.53,33.14,1000.29,-35.5,44.25,1011.01,-40.97,13.41
399,TC219104,Colin,C,-1,,,2191-09-18 00:00:00,2191-09-18 00:00:00,2191-09-16 00:00:00,990.7,-84.21,16.09,990.7,-84.21,16.09,,,,,,,1006.88,-69.17,14.6
400,TC219201,Ernest,C,0,2192-05-14 18:00:00,,2192-05-14 00:00:00,2192-05-14 00:00:00,2192-05-11 18:00:00,991.78,-79.49,32.61,991.78,-79.49,32.61,1007.05,-80.64,32.72,,,,1007.71,-79.73,25.68
401,TC219202,Grace,C,0,2192-06-01 18:00:00,,2192-05-29 00:00:00,2192-05-29 00:00:00,2192-05-26 18:00:00,986.21,-55.57,33.26,986.21,-55.57,33.26,1006.28,-41.03,43.93,,,,1001.5,-76.07,33.14
402,TC219203,Harrison,C,0,2192-07-03 12:00:00,,2192-07-01 18:00:00,2192-07-01 18:00:00,2192-06-25 18:00:00,986.79,-72.15,39.49,986.79,-72.15,39.49,1008.01,-65.27,46.26,,,,1018.31,-81.15,32.76
403,TC219205,Kinen,C,0,2192-08-29 12:00:00,,2192-08-29 06:00:00,2192-08-29 06:00:00,2192-08-24 06:00:00,970.77,-45.28,39.75,970.77,-45.28,39.75,972.74,-42.83,40.46,,,,1016.51,-50.96,32.71
404,TC219206,Lydia,C,0,2192-09-16 00:00:00,,2192-09-10 06:00:00,2192-09-10 06:00:00,2192-09-09 06:00:00,999.94,-23.56,18.59,999.94,-23.56,18.59,1017.52,-52.0,24.0,,,,1008.09,-19.85,17.03
405,TC219208,Nicole,C,-1,,,2192-09-18 18:00:00,2192-09-18 18:00:00,2192-09-16 06:00:00,996.21,-19.42,19.66,996.21,-19.42,19.66,,,,,,,1006.67,-9.42,16.45
406,TC219209,Phil,C,0,2192-11-19 06:00:00,,2192-11-17 06:00:00,2192-11-17 06:00:00,2192-11-13 06:00:00,969.35,-49.74,41.29,969.35,-49.74,41.29,997.39,-52.27,50.88,,,,996.76,-64.63,31.17
